[{"id":3,"name":"Avondale Family Health Centre","address":"1784 Great North Road Avondale","pho":"Alliance Health Plus","phone":"(09) 820 0065 or 820 0526","url":"http://www.alliancehealth.org.nz/clinics/3/avondale-family-health-centre/","prices":[{"age":0,"price":0},{"age":13,"price":0},{"age":18,"price":17}],"lat":"-36.891718","lng":"174.6962566","restriction":"","place_id":null},{"id":864,"name":"Auckland Metro Doctors","address":"17 Emily Place, Auckland Central, Auckland","pho":"Procare Networks","phone":"(09) 373 4621","url":"http://procare.co.nz/","prices":[{"age":0,"price":0},{"age":6,"price":0},{"age":13,"price":0},{"age":18,"price":58},{"age":25,"price":58},{"age":45,"price":58},{"age":65,"price":58}],"lat":"-36.8460912","lng":"174.7706206","restriction":"","place_id":null},{"id":13,"name":"Mt Smart Medical Centre","address":"237A Mt Smart Road, Onehunga, Auckland","pho":"Procare Networks","phone":"(09) 579 0563","url":"http://procare.co.nz/","prices":[{"age":0,"price":0},{"age":6,"price":0},{"age":13,"price":0},{"age":18,"price":17},{"age":25,"price":17},{"age":45,"price":17},{"age":65,"price":17}],"lat":null,"lng":null,"restriction":"","place_id":null},{"id":4,"name":"Bader Drive Healthcare Mangere","address":"93 Bader Drive  Mangere Town Centre,","pho":"Alliance Health Plus","phone":"None supplied","url":"http://www.alliancehealth.org.nz/clinics/4/bader-drive-healthcare-mangere/","prices":[{"age":0,"price":0},{"age":18,"price":17},{"age":75,"price":10}],"lat":"-36.9688897","lng":"174.7997308","restriction":"","place_id":null},{"id":5,"name":"Bader Drive Healthcare Manurewa","address":"Shop 4/6,  7 Hill Road Manurewa","pho":"Alliance Health Plus","phone":"(09) 266 8598","url":"http://www.alliancehealth.org.nz/clinics/5/bader-drive-healthcare-manurewa/","prices":[{"age":0,"price":0},{"age":18,"price":17},{"age":75,"price":10}],"lat":"-37.0204997","lng":"174.8971001","restriction":"","place_id":null},{"id":7,"name":"Cavendish Family Doctors","address":"175 Cavendish Drive Manukau","pho":"Alliance Health Plus","phone":"None supplied","url":"http://www.alliancehealth.org.nz/clinics/30/cavendish-family-doctors/","prices":[{"age":0,"price":0},{"age":13,"price":10},{"age":18,"price":25},{"age":65,"price":20}],"lat":"-36.9927281","lng":"174.8607848","restriction":"","place_id":null},{"id":12,"name":"Mangere Family Doctors","address":"215 Massey Road Mangere","pho":"Alliance Health Plus","phone":"(09) 275 9977","url":"http://www.alliancehealth.org.nz/clinics/9/mangere-family-doctors/","prices":[{"age":0,"price":0},{"age":13,"price":6},{"age":18,"price":17}],"lat":"-36.9567364","lng":"174.8338618","restriction":"","place_id":"ChIJC4J68OxODW0RbC96SzXS5DE"},{"id":16,"name":"Otahuhu Family Medical Centre","address":"507 Great South Road (Shop 7b) Otahuhu","pho":"Alliance Health Plus","phone":"1062","url":"http://www.alliancehealth.org.nz/clinics/33/otahuhu-family-medical-centre/","prices":[{"age":0,"price":0},{"age":13,"price":11},{"age":18,"price":17}],"lat":"-36.9470467","lng":"174.8456607","restriction":"","place_id":null},{"id":10,"name":"Langimalie Health Centre Panmure","address":"161 Queens Road  Panmure","pho":"Alliance Health Plus","phone":"(09) 570 9827","url":"http://www.alliancehealth.org.nz/clinics/8/langimalie-health-centre-panmure/","prices":[{"age":0,"price":0},{"age":18,"price":15},{"age":65,"price":0}],"lat":"-36.9008555","lng":"174.8564594","restriction":"","place_id":null},{"id":11,"name":"Langimalie Integrated Family Health Centre Onehunga","address":"29 Hill Street Onehunga","pho":"Alliance Health Plus","phone":"(09) 636 3629","url":"http://www.alliancehealth.org.nz/clinics/7/langimalie-integrated-family-health-centre-onehunga/","prices":[{"age":0,"price":0},{"age":18,"price":15},{"age":65,"price":0}],"lat":"-36.9240944","lng":"174.7812295","restriction":"","place_id":null},{"id":17,"name":"Otahuhu Family Practice","address":"5/115 Church Street Otahuhu","pho":"Alliance Health Plus","phone":"(09) 276 4309","url":"http://www.alliancehealth.org.nz/clinics/12/otahuhu-family-practice/","prices":[{"age":0,"price":0},{"age":13,"price":10},{"age":18,"price":17}],"lat":"-36.9443529","lng":"174.8467646","restriction":"","place_id":null},{"id":18,"name":"Otahuhu Medical Clinic","address":"463 Great South Road Otahuhu","pho":"Alliance Health Plus","phone":"(09) 276 2822 or (09) 270 2023","url":"http://www.alliancehealth.org.nz/clinics/21/otahuhu-medical-clinic/","prices":[{"age":0,"price":0},{"age":17,"price":11.5},{"age":18,"price":12},{"age":18,"price":17}],"lat":"-36.9457784","lng":"174.8447281","restriction":"","place_id":null},{"id":20,"name":"Pukekohe South Doctors ","address":"241 Manukau Road, Pukekohe 2120","pho":"Alliance Health Plus","phone":"(09) 2370286","url":"http://www.alliancehealth.org.nz/clinics/22/pukekohe-south-doctors/","prices":[{"age":0,"price":0},{"age":13,"price":17},{"age":18,"price":33},{"age":25,"price":36},{"age":45,"price":36},{"age":65,"price":33}],"lat":"-37.2143371","lng":"174.9100736","restriction":"","place_id":null},{"id":21,"name":"Sandhu Doctors","address":"488 Great South Road Papatoetoe","pho":"Alliance Health Plus","phone":"(09) 277 7830","url":"http://www.alliancehealth.org.nz/clinics/19/sandhu-doctors/","prices":[{"age":0,"price":0},{"age":13,"price":11.5},{"age":18,"price":17}],"lat":"-36.977737","lng":"174.8715908","restriction":"","place_id":null},{"id":22,"name":"Seddon Medical Centre","address":"13A Hall Street  Pukekohe, AUCKLAND","pho":"Alliance Health Plus","phone":"09 237 0055","url":"http://www.alliancehealth.org.nz/clinics/15/seddon-medical-centre/","prices":[{"age":0,"price":0},{"age":13,"price":12},{"age":18,"price":18}],"lat":"-37.1994762","lng":"174.9058724","restriction":"","place_id":null},{"id":19,"name":"The Puhinui Doctors","address":"258A Puhinui Road,  Papatoetoe","pho":"Alliance Health Plus","phone":"(09) 279 5556","url":"http://www.alliancehealth.org.nz/clinics/18/the-puhinui-doctors/","prices":[{"age":0,"price":0},{"age":13,"price":11},{"age":18,"price":16}],"lat":"-36.9909881","lng":"174.8512103","restriction":"","place_id":"ChIJH7J-R9lNDW0RmO2dwqZjBaQ"},{"id":913,"name":"Caliburn Medical Services Manukau","address":"25 Holgate Road, Kohimarama, Auckland","pho":"Procare Networks","phone":"(09) 528 5539","url":"http://procare.co.nz/","prices":[{"age":0,"price":0},{"age":6,"price":0},{"age":13,"price":0},{"age":18,"price":0},{"age":25,"price":0},{"age":45,"price":0},{"age":65,"price":0}],"lat":"-36.85013259999999","lng":"174.8388808","restriction":"","place_id":null},{"id":33,"name":"Drs Cammack & Evans","address":"46 Ocean Rd, Paraparaumu Beach, 5032","pho":"Compass Health","phone":"04 2985114","url":"http://www.compasshealth.org.nz/PracticesandFees/WellingtonPractices/tabid/100/ctl/Map/mid/484/practice/327/Default.aspx","prices":[{"age":0,"price":0},{"age":6,"price":0},{"age":13,"price":29},{"age":18,"price":38},{"age":25,"price":50},{"age":45,"price":50},{"age":65,"price":50}],"lat":"-40.8960800284853","lng":"174.983436628728","restriction":"","place_id":"ChIJqbthPgKhQG0RpRwQ0HJf-uo"},{"id":23,"name":"South Seas Healthcare","address":"Shop 11 Otara Town Centre Otara","pho":"Alliance Health Plus","phone":"(09) 273 9017","url":"http://www.alliancehealth.org.nz/clinics/13/south-seas-healthcare/","prices":[{"age":0,"price":0},{"age":18,"price":10}],"lat":"-36.9610559","lng":"174.8732661","restriction":"","place_id":null},{"id":32,"name":"Dr RM McIlroy's Surgery","address":"4 Taurima Street, Hataitai, Wellington, 6021","pho":"Compass Health","phone":"04 3861379","url":"http://www.compasshealth.org.nz/PracticesandFees/WellingtonPractices/tabid/100/ctl/Map/mid/484/practice/337/Default.aspx","prices":[{"age":0,"price":0},{"age":6,"price":0},{"age":13,"price":33},{"age":18,"price":38},{"age":25,"price":38},{"age":45,"price":38},{"age":65,"price":38}],"lat":"-41.3043959150521","lng":"174.793518326786","restriction":"","place_id":null},{"id":29,"name":"City GPs","address":"189 - 191 Willis St, Wellington, 6011","pho":"Compass Health","phone":"04 3816161","url":"http://www.compasshealth.org.nz/PracticesandFees/WellingtonPractices/tabid/100/ctl/Map/mid/484/practice/322/Default.aspx","prices":[{"age":0,"price":0},{"age":6,"price":0},{"age":13,"price":41},{"age":18,"price":50},{"age":25,"price":63},{"age":45,"price":63},{"age":65,"price":63}],"lat":"-41.2916084056584","lng":"174.773514985014","restriction":"","place_id":null},{"id":36,"name":"Hataitai Village Surgery","address":"4 Taurima St, Hataitai, Wellington, 6021","pho":"Compass Health","phone":"04 3861379","url":"http://www.compasshealth.org.nz/PracticesandFees/WellingtonPractices/tabid/100/ctl/Map/mid/484/practice/372/Default.aspx","prices":[{"age":0,"price":0},{"age":6,"price":0},{"age":13,"price":30},{"age":18,"price":35},{"age":25,"price":35},{"age":45,"price":35},{"age":65,"price":35}],"lat":"-41.3043959150521","lng":"174.793518326786","restriction":"","place_id":null},{"id":914,"name":"Country Medical Clinic","address":"76 Main Road, Kumeu, Auckland","pho":"Procare Networks","phone":"(09) 412 8722","url":"http://www.wasfysmed.co.nz/","prices":[{"age":0,"price":0},{"age":6,"price":0},{"age":13,"price":20},{"age":18,"price":35},{"age":25,"price":38},{"age":45,"price":38},{"age":65,"price":32}],"lat":null,"lng":null,"restriction":"","place_id":null},{"id":2,"name":"Auckland City Doctors","address":"415 Queen Street Auckland City","pho":"Alliance Health Plus","phone":"(09) 280 3555","url":"http://www.alliancehealth.org.nz/clinics/1/auckland-city-doctors/","prices":[{"age":0,"price":0},{"age":13,"price":11.5},{"age":18,"price":17}],"lat":"-36.8571321","lng":"174.7616216","restriction":"","place_id":null},{"id":25,"name":"Victoria Park Medical Suites","address":"Ground Floor 5 Vernon St","pho":"Alliance Health Plus","phone":"Bay","url":"http://www.alliancehealth.org.nz/clinics/26/victoria-park-medical-suites/","prices":[{"age":0,"price":0},{"age":13,"price":17},{"age":18,"price":29},{"age":25,"price":32},{"age":45,"price":32},{"age":65,"price":25}],"lat":"-36.8488532","lng":"174.7558334","restriction":"","place_id":null},{"id":26,"name":"Waiuku Health Centre","address":"26-30 Constable Road Waiuku","pho":"Alliance Health Plus","phone":"(09) 235 9102 or (09) 235 9192","url":"http://www.alliancehealth.org.nz/clinics/20/waiuku-health-centre/","prices":[{"age":0,"price":0},{"age":13,"price":25},{"age":18,"price":32},{"age":25,"price":38},{"age":65,"price":33}],"lat":"-37.2521607","lng":"174.7251647","restriction":"","place_id":null},{"id":34,"name":"Grace Surgery","address":"51 Kapiti Road, Paraparaumu","pho":"Compass Health","phone":"04 2983050","url":"http://www.compasshealth.org.nz/PracticesandFees/WellingtonPractices/tabid/100/ctl/Map/mid/484/practice/6585/Default.aspx","prices":[{"age":0,"price":0},{"age":6,"price":0},{"age":13,"price":33},{"age":18,"price":45},{"age":25,"price":47},{"age":45,"price":47.2},{"age":65,"price":48}],"lat":"-40.9120221","lng":"175.0031146","restriction":"","place_id":null},{"id":31,"name":"Courtenay Medical","address":"Lvl 5, Symes de Silva House, 97-99 Courtenay Place, Te Aro, Wellington, 6011","pho":"Compass Health","phone":"04 8015228","url":"http://www.compasshealth.org.nz/PracticesandFees/WellingtonPractices/tabid/100/ctl/Map/mid/484/practice/315/Default.aspx","prices":[{"age":0,"price":0},{"age":6,"price":0},{"age":13,"price":0},{"age":18,"price":37},{"age":25,"price":60},{"age":45,"price":60},{"age":65,"price":60}],"lat":"-41.2930498","lng":"174.7789676","restriction":"","place_id":null},{"id":35,"name":"Hataitai Medical Practice","address":"12 Tapiri St, Hataitai, Wellington, 6021","pho":"Compass Health","phone":"04 3863598","url":"http://www.compasshealth.org.nz/PracticesandFees/WellingtonPractices/tabid/100/ctl/Map/mid/484/practice/356/Default.aspx","prices":[{"age":0,"price":0},{"age":6,"price":0},{"age":13,"price":40},{"age":18,"price":50},{"age":25,"price":57},{"age":45,"price":53},{"age":65,"price":44}],"lat":"-41.3059412412874","lng":"174.793763432687","restriction":"","place_id":null},{"id":27,"name":"Brooklyn Central Health","address":"183 Ohiro Road, Brooklyn, Wellington","pho":"Compass Health","phone":"04 8018188","url":"http://www.compasshealth.org.nz/PracticesandFees/WellingtonPractices/tabid/100/ctl/Map/mid/484/practice/295/Default.aspx","prices":[{"age":0,"price":0},{"age":6,"price":0},{"age":13,"price":32},{"age":18,"price":43},{"age":25,"price":46.5},{"age":45,"price":46.5},{"age":65,"price":42}],"lat":"-41.3047112557738","lng":"174.763596024943","restriction":"","place_id":null},{"id":38,"name":"Island Bay Medical Centre","address":"159 The Parade, Island Bay, Wellington, 6023","pho":"Compass Health","phone":"043837647","url":"http://www.compasshealth.org.nz/PracticesandFees/WellingtonPractices/tabid/100/ctl/Map/mid/484/practice/367/Default.aspx","prices":[{"age":0,"price":0},{"age":6,"price":0},{"age":13,"price":37},{"age":18,"price":41},{"age":25,"price":44.5},{"age":45,"price":44.5},{"age":65,"price":44.5}],"lat":"-41.3353625020406","lng":"174.773474366711","restriction":"","place_id":null},{"id":40,"name":"Kelburn GPs","address":"42 Upland Road, Kelburn, Wellington","pho":"Compass Health","phone":"044759801","url":"http://www.compasshealth.org.nz/PracticesandFees/WellingtonPractices/tabid/100/ctl/Map/mid/484/practice/381/Default.aspx","prices":[{"age":0,"price":0},{"age":6,"price":0},{"age":13,"price":47},{"age":18,"price":50},{"age":25,"price":52},{"age":45,"price":52},{"age":65,"price":50}],"lat":"-41.2877948740891","lng":"174.765507708793","restriction":"","place_id":null},{"id":42,"name":"Khandallah Medical Centre","address":"8 Dekka St, Khandallah, Wellington, 6035","pho":"Compass Health","phone":"04 4797157","url":"http://www.compasshealth.org.nz/PracticesandFees/WellingtonPractices/tabid/100/ctl/Map/mid/484/practice/384/Default.aspx","prices":[{"age":0,"price":0},{"age":6,"price":0},{"age":13,"price":43},{"age":18,"price":50},{"age":25,"price":58},{"age":45,"price":58},{"age":65,"price":58}],"lat":"-41.2474061169988","lng":"174.790334364882","restriction":"","place_id":null},{"id":44,"name":"Kilbirnie Central Surgery (Dr Matich)","address":"1 Kilbirnie Plaza, Kilbirnie","pho":"Compass Health","phone":"1 Kilbirnie Plaza, Kilbirnie","url":"http://www.compasshealth.org.nz/PracticesandFees/WellingtonPractices/tabid/100/ctl/Map/mid/484/practice/378/Default.aspx","prices":[{"age":0,"price":0},{"age":6,"price":0},{"age":13,"price":33},{"age":18,"price":37},{"age":25,"price":37},{"age":45,"price":37},{"age":65,"price":37}],"lat":"-41.3172271814673","lng":"174.795456443899","restriction":"","place_id":null},{"id":45,"name":"Linden Surgery","address":"49 Hinau Street, Linden, Wellington, 5028","pho":"Compass Health","phone":"04 2328376","url":"http://www.compasshealth.org.nz/PracticesandFees/WellingtonPractices/tabid/100/ctl/Map/mid/484/practice/395/Default.aspx","prices":[{"age":0,"price":0},{"age":6,"price":0},{"age":13,"price":38.5},{"age":18,"price":47},{"age":25,"price":48},{"age":45,"price":48},{"age":65,"price":47}],"lat":"-41.1581925510255","lng":"174.832965644893","restriction":"","place_id":null},{"id":46,"name":"Mana Medical Centre","address":"107 The Esplanade, Paremata, Porirua, 5026","pho":"Compass Health","phone":"04 2338019","url":"http://www.compasshealth.org.nz/PracticesandFees/WellingtonPractices/tabid/100/ctl/Map/mid/484/practice/398/Default.aspx","prices":[{"age":0,"price":0},{"age":6,"price":0},{"age":13,"price":39},{"age":18,"price":51},{"age":25,"price":51},{"age":45,"price":51},{"age":65,"price":48.5}],"lat":"-41.091693298327","lng":"174.867888515687","restriction":"","place_id":null},{"id":47,"name":"Miramar Medical Centre","address":"46 Park Rd, Miramar, Wellington","pho":"Compass Health","phone":"04 388 7018","url":"http://www.compasshealth.org.nz/PracticesandFees/WellingtonPractices/tabid/100/ctl/Map/mid/484/practice/406/Default.aspx","prices":[{"age":0,"price":0},{"age":6,"price":0},{"age":13,"price":33},{"age":18,"price":42},{"age":25,"price":48},{"age":45,"price":47.9},{"age":65,"price":46}],"lat":"-41.3140902910754","lng":"174.818138998074","restriction":"","place_id":null},{"id":41,"name":"Kelburn Medical Centre","address":"5 Upland Rd, Kelburn, Wellington","pho":"Compass Health","phone":"049399551","url":"http://www.compasshealth.org.nz/PracticesandFees/WellingtonPractices/tabid/100/ctl/Map/mid/484/practice/380/Default.aspx","prices":[{"age":0,"price":0},{"age":6,"price":0},{"age":13,"price":37},{"age":18,"price":48},{"age":25,"price":48},{"age":45,"price":48},{"age":65,"price":46}],"lat":"-41.2857995737486","lng":"174.767006515261","restriction":"","place_id":"ChIJcRnJayywOG0Rx7TnHkcklcQ"},{"id":43,"name":"Kilbirnie Central Surgery (Dr Macann)","address":"1 Kilbirnie Plaza, Kilbirnie","pho":"Compass Health","phone":"1 Kilbirnie Plaza, Kilbirnie","url":"http://www.compasshealth.org.nz/PracticesandFees/WellingtonPractices/tabid/100/ctl/Map/mid/484/practice/378/Default.aspx","prices":[{"age":0,"price":0},{"age":6,"price":0},{"age":13,"price":24},{"age":18,"price":33},{"age":25,"price":38},{"age":45,"price":38},{"age":65,"price":31}],"lat":"-41.3172271814673","lng":"174.795456443899","restriction":"","place_id":"ChIJrfr0v4yvOG0RdY0L-bE6nc0"},{"id":48,"name":"Natural Healing Raumati","address":"22 Margaret Road, Raumati Beach, Paraparaumu, 5032","pho":"Compass Health","phone":"04 9021048","url":"http://www.compasshealth.org.nz/PracticesandFees/WellingtonPractices/tabid/100/ctl/Map/mid/484/practice/4210/Default.aspx","prices":[{"age":0,"price":0},{"age":6,"price":0},{"age":13,"price":50},{"age":18,"price":55},{"age":25,"price":55},{"age":45,"price":55},{"age":65,"price":55}],"lat":"-40.92030569515","lng":"174.9811192322","restriction":"","place_id":null},{"id":50,"name":"Newtown Medical Centre","address":"33 Rintoul St, Newtown, Wellington, 6021","pho":"Compass Health","phone":"043899955","url":"http://www.compasshealth.org.nz/PracticesandFees/WellingtonPractices/tabid/100/ctl/Map/mid/484/practice/415/Default.aspx","prices":[{"age":0,"price":0},{"age":6,"price":0},{"age":13,"price":27},{"age":18,"price":38},{"age":25,"price":43},{"age":45,"price":43},{"age":65,"price":41.5}],"lat":"-41.3132677530763","lng":"174.778887997349","restriction":"","place_id":null},{"id":1042,"name":"The Doctors Phoenix","address":"Phoenix House, Pyne Street, WHAKATANE","pho":"Eastern Bay PHO","phone":"See website","url":"http://www.ebpha.org.nz/index.php?option=com_content&view=article&id=18&Itemid=157","prices":"","lat":"-37.954401","lng":"176.989145","restriction":"","place_id":null},{"id":52,"name":"Northland Village Surgery","address":"52 Northland Rd, Northland, Wellington, 6012","pho":"Compass Health","phone":"04 4753377","url":"http://www.compasshealth.org.nz/PracticesandFees/WellingtonPractices/tabid/100/ctl/Map/mid/484/practice/424/Default.aspx","prices":[{"age":0,"price":0},{"age":6,"price":0},{"age":13,"price":46},{"age":18,"price":54},{"age":25,"price":54},{"age":45,"price":54},{"age":65,"price":53}],"lat":"-41.283434862219","lng":"174.757271880914","restriction":"","place_id":null},{"id":54,"name":"Pacific Health Service Porirua","address":"4 Bedford Court, Cannons Creek, Porirua, 5024","pho":"Compass Health","phone":"048903620","url":"http://www.compasshealth.org.nz/PracticesandFees/WellingtonPractices/tabid/100/ctl/Map/mid/484/practice/5105/Default.aspx","prices":[{"age":0,"price":0},{"age":6,"price":0},{"age":13,"price":0},{"age":18,"price":10},{"age":25,"price":10},{"age":45,"price":10},{"age":65,"price":10}],"lat":"-41.1413139758592","lng":"174.863379953858","restriction":"","place_id":null},{"id":916,"name":"Huapai Family Medical Practice","address":"124 Matua Road, Kumeu, Auckland","pho":"Procare Networks","phone":"(09) 412 9133","url":"http://www.healthpoint.co.nz/doctors/gp/huapai-family-medical-practice/","prices":[{"age":0,"price":0},{"age":6,"price":0},{"age":13,"price":20},{"age":18,"price":35},{"age":25,"price":49},{"age":45,"price":49},{"age":65,"price":40}],"lat":"-36.7647485","lng":"174.5398832","restriction":"","place_id":"ChIJ2QJ6LWsUDW0R1JqgVmMqE0M"},{"id":55,"name":"Paraparaumu Medical","address":"40 Ihakara Street, Paraparaumu, Kapiti Coast, 5032","pho":"Compass Health","phone":"04 9028507","url":"http://www.compasshealth.org.nz/PracticesandFees/WellingtonPractices/tabid/100/ctl/Map/mid/484/practice/436/Default.aspx","prices":[{"age":0,"price":0},{"age":6,"price":0},{"age":13,"price":42.5},{"age":18,"price":49.5},{"age":25,"price":49.5},{"age":45,"price":49.5},{"age":65,"price":46.5}],"lat":"-40.9170014","lng":"174.9973735","restriction":"","place_id":null},{"id":58,"name":"Plimmerton Medical Centre","address":"10 Steyne Avenue, Plimmerton, Porirua, 5026","pho":"Compass Health","phone":"04 2338015","url":"http://www.compasshealth.org.nz/PracticesandFees/WellingtonPractices/tabid/100/ctl/Map/mid/484/practice/452/Default.aspx","prices":[{"age":0,"price":0},{"age":6,"price":0},{"age":13,"price":29},{"age":18,"price":42},{"age":25,"price":45},{"age":45,"price":46},{"age":65,"price":43}],"lat":"-41.0825564258592","lng":"174.865880945682","restriction":"","place_id":null},{"id":59,"name":"Port Nicholson MC (Dr J Barrett)","address":"Level 1/101  Courtney Place, Te Aro","pho":"Compass Health","phone":"Level 1/101  Courtney Place, Te Aro","url":"http://www.compasshealth.org.nz/PracticesandFees/WellingtonPractices/tabid/100/ctl/Map/mid/484/practice/454/Default.aspx","prices":[{"age":0,"price":0},{"age":6,"price":0},{"age":13,"price":38},{"age":18,"price":48},{"age":25,"price":56},{"age":45,"price":56},{"age":65,"price":50}],"lat":"-41.2930770859776","lng":"174.778761027751","restriction":"","place_id":null},{"id":60,"name":"Port Nicholson MC (Dr L Smith)","address":"Level 1/101  Courtney Place, Te Aro","pho":"Compass Health","phone":"Level 1/101  Courtney Place, Te Aro","url":"http://www.compasshealth.org.nz/PracticesandFees/WellingtonPractices/tabid/100/ctl/Map/mid/484/practice/454/Default.aspx","prices":[{"age":0,"price":0},{"age":6,"price":0},{"age":13,"price":47},{"age":18,"price":55},{"age":25,"price":69},{"age":45,"price":69},{"age":65,"price":55}],"lat":"-41.2930770859776","lng":"174.778761027751","restriction":"","place_id":"ChIJc9lIANqvOG0RhuMyeJh2D9Q"},{"id":61,"name":"Raumati Road Surgery","address":"23 Raumati Road, Raumati Beach, Paraparaumu, 5032","pho":"Compass Health","phone":"04 298 6807","url":"http://www.compasshealth.org.nz/PracticesandFees/WellingtonPractices/tabid/100/ctl/Map/mid/484/practice/473/Default.aspx","prices":[{"age":0,"price":0},{"age":6,"price":0},{"age":13,"price":40},{"age":18,"price":55},{"age":25,"price":67},{"age":45,"price":69},{"age":65,"price":57}],"lat":"-40.9190529590133","lng":"174.98273252998","restriction":"","place_id":null},{"id":57,"name":"Plimmer Surgery","address":"Level 4,  Plimmer Tower, Lambton Quay, Wellington, 6011","pho":"Compass Health","phone":"04 472 6024","url":"http://www.compasshealth.org.nz/PracticesandFees/WellingtonPractices/tabid/100/ctl/Map/mid/484/practice/453/Default.aspx","prices":[{"age":0,"price":0},{"age":6,"price":0},{"age":13,"price":38},{"age":18,"price":45},{"age":25,"price":45},{"age":45,"price":45},{"age":65,"price":39.5}],"lat":"-41.2859617182011","lng":"174.775249667975","restriction":"","place_id":"ChIJs07NpNWvOG0Runjw5CG6Dlc"},{"id":63,"name":"Student Health Services, Mauri Ora, Victoria University","address":"Student Health Service, Mauri Ora, L1, Student Union B, Gate 1, Kelburn P Wellington","pho":"Compass Health","phone":"04 463 5308","url":"http://www.compasshealth.org.nz/PracticesandFees/WellingtonPractices/tabid/100/ctl/Map/mid/484/practice/486/Default.aspx","prices":[{"age":0,"price":0},{"age":6,"price":0},{"age":13,"price":0},{"age":18,"price":0},{"age":25,"price":15},{"age":45,"price":0},{"age":65,"price":0}],"lat":"-41.2880074413849","lng":"174.768104524731","restriction":"","place_id":null},{"id":78,"name":"Avalon Medical Centre","address":"840 High Street, Lower Hutt","pho":"Te Awakairangi Health Network","phone":"(04) 567 7359","url":"http://www.teawakairangihealth.org.nz/practice-and-fees","prices":[{"age":0,"price":0},{"age":13,"price":26},{"age":18,"price":38},{"age":25,"price":39},{"age":45,"price":39},{"age":65,"price":35}],"lat":"-41.197697","lng":"174.937943","restriction":"","place_id":"ChIJiS2VBp2qOG0RG4nxOYHb9aU"},{"id":65,"name":"Te Aro Health Centre","address":"331 Willis Street, Wellington","pho":"Compass Health","phone":"04 3850255","url":"http://www.compasshealth.org.nz/PracticesandFees/WellingtonPractices/tabid/100/ctl/Map/mid/484/practice/499/Default.aspx","prices":[{"age":0,"price":0},{"age":6,"price":0},{"age":13,"price":10.5},{"age":18,"price":12.5},{"age":25,"price":12.5},{"age":45,"price":12.5},{"age":65,"price":12.5}],"lat":"-41.2959692359451","lng":"174.771052810887","restriction":"","place_id":null},{"id":66,"name":"Team Medical","address":"Coastlands Mall, Paraparaumu, Paraparaumu","pho":"Compass Health","phone":"04 2973000","url":"http://www.compasshealth.org.nz/PracticesandFees/WellingtonPractices/tabid/100/ctl/Map/mid/484/practice/706/Default.aspx","prices":[{"age":0,"price":0},{"age":6,"price":0},{"age":13,"price":23},{"age":18,"price":44},{"age":25,"price":44},{"age":45,"price":44},{"age":65,"price":42}],"lat":"-40.9165876099765","lng":"175.005529433268","restriction":"","place_id":"ChIJf_XLRUehQG0R14AOowdVvLw"},{"id":68,"name":"Titahi Bay Doctors","address":"3 Whitehouse Rd, Titahi Bay, Porirua, 5022","pho":"Compass Health","phone":"04 2368171","url":"http://www.compasshealth.org.nz/PracticesandFees/WellingtonPractices/tabid/100/ctl/Map/mid/484/practice/502/Default.aspx","prices":[{"age":0,"price":0},{"age":6,"price":0},{"age":13,"price":25},{"age":18,"price":34},{"age":25,"price":35},{"age":45,"price":35},{"age":65,"price":34}],"lat":"-41.1080009613562","lng":"174.839494553871","restriction":"","place_id":null},{"id":75,"name":"Greytown Medical Centre","address":"186 East Street, Greytown, Wairarapa","pho":"Compass Health","phone":"06 3049012","url":"http://www.compasshealth.org.nz/PracticesandFees/WairarapaPractices/tabid/101/ctl/Map/mid/499/practice/759/Default.aspx","prices":[{"age":0,"price":0},{"age":6,"price":0},{"age":13,"price":26},{"age":18,"price":27},{"age":25,"price":32},{"age":45,"price":35},{"age":65,"price":35}],"lat":"-41.0892119631547","lng":"175.452116596773","restriction":"","place_id":null},{"id":77,"name":"Masterton Medical","address":"4 Colombo Road, Masterton, Wairarapa, 5810","pho":"Compass Health","phone":"06 3700011","url":"http://www.compasshealth.org.nz/PracticesandFees/WairarapaPractices/tabid/101/ctl/Map/mid/499/practice/763/Default.aspx","prices":[{"age":0,"price":0},{"age":6,"price":0},{"age":13,"price":31.5},{"age":18,"price":35},{"age":25,"price":40},{"age":45,"price":40},{"age":65,"price":35}],"lat":"-40.9480928","lng":"175.6755539","restriction":"","place_id":null},{"id":69,"name":"Titahi Bay Surgery","address":"76 Main Road, Titahi Bay, Porirua, 5022","pho":"Compass Health","phone":"04 2368200","url":"http://www.compasshealth.org.nz/PracticesandFees/WellingtonPractices/tabid/100/ctl/Map/mid/484/practice/503/Default.aspx","prices":[{"age":0,"price":0},{"age":6,"price":0},{"age":13,"price":23},{"age":18,"price":36},{"age":25,"price":38},{"age":45,"price":38},{"age":65,"price":34}],"lat":"-41.1089313246568","lng":"174.840461186736","restriction":"","place_id":null},{"id":71,"name":"Waikanae Health Centre","address":"Marae Lane, Waikanae, 5036","pho":"Compass Health","phone":"04 2936005","url":"http://www.compasshealth.org.nz/PracticesandFees/WellingtonPractices/tabid/100/ctl/Map/mid/484/practice/525/Default.aspx","prices":[{"age":0,"price":0},{"age":6,"price":0},{"age":13,"price":35.6},{"age":18,"price":52},{"age":25,"price":52},{"age":45,"price":52},{"age":65,"price":50}],"lat":"-40.8782238929786","lng":"175.063272918862","restriction":"","place_id":null},{"id":70,"name":"Wadestown Medical","address":"104a Wadestown Rd, Wadestown, Wellington, 6012","pho":"Compass Health","phone":"04 4737248","url":"http://www.compasshealth.org.nz/PracticesandFees/WellingtonPractices/tabid/100/ctl/Map/mid/484/practice/564/Default.aspx","prices":[{"age":0,"price":0},{"age":6,"price":0},{"age":13,"price":40},{"age":18,"price":49},{"age":25,"price":53},{"age":45,"price":53},{"age":65,"price":52}],"lat":"-41.2617736239261","lng":"174.774419694351","restriction":"","place_id":null},{"id":72,"name":"Whitby Doctors","address":"Whitby Mall, Discovery Drive, Whitby, 5024","pho":"Compass Health","phone":"04 234 1404","url":"http://www.compasshealth.org.nz/PracticesandFees/WellingtonPractices/tabid/100/ctl/Map/mid/484/practice/537/Default.aspx","prices":[{"age":0,"price":0},{"age":6,"price":0},{"age":13,"price":33},{"age":18,"price":40},{"age":25,"price":50},{"age":45,"price":50},{"age":65,"price":40}],"lat":"-41.1158750461098","lng":"174.890211187909","restriction":"","place_id":null},{"id":74,"name":"Featherston Medical Ltd","address":"3 Clifford Square, Featherston, Wairarapa, 5710","pho":"Compass Health","phone":"06 3089220","url":"http://www.compasshealth.org.nz/PracticesandFees/WairarapaPractices/tabid/101/ctl/Map/mid/499/practice/757/Default.aspx","prices":[{"age":0,"price":0},{"age":6,"price":0},{"age":13,"price":28},{"age":18,"price":30.5},{"age":25,"price":32.5},{"age":45,"price":33.5},{"age":65,"price":31}],"lat":"-41.1172080281923","lng":"175.328611810834","restriction":"","place_id":null},{"id":76,"name":"Martinborough Health Services","address":"5 Oxford Street, Martinborough, Wairarapa, 5711","pho":"Compass Health","phone":"06 3069501","url":"http://www.compasshealth.org.nz/PracticesandFees/WairarapaPractices/tabid/101/ctl/Map/mid/499/practice/758/Default.aspx","prices":[{"age":0,"price":0},{"age":6,"price":0},{"age":13,"price":32},{"age":18,"price":35},{"age":25,"price":36},{"age":45,"price":36},{"age":65,"price":32}],"lat":"-41.2193817552599","lng":"175.460591705136","restriction":"","place_id":null},{"id":83,"name":"Fitzherbert Road Medical","address":"5 Fitzherbert Road, Wainuiomata","pho":"Te Awakairangi Health Network","phone":"(04) 564 3497","url":"http://www.teawakairangihealth.org.nz/practice-and-fees","prices":[{"age":0,"price":0},{"age":13,"price":29},{"age":18,"price":31},{"age":25,"price":32.5},{"age":45,"price":34.5},{"age":65,"price":31}],"lat":"-41.2601743","lng":"174.9470734","restriction":"","place_id":"ChIJu4GbzgRWR20RR5pdesCLQJ4"},{"id":84,"name":"Gain Health Centre","address":"723A Fergusson Drive, Upper Hutt","pho":"Te Awakairangi Health Network","phone":"(04) 528 5353","url":"http://www.teawakairangihealth.org.nz/practice-and-fees","prices":[{"age":0,"price":0},{"age":13,"price":33},{"age":18,"price":39},{"age":25,"price":43},{"age":45,"price":43.5},{"age":65,"price":38}],"lat":"-41.1254813","lng":"175.058222","restriction":"","place_id":"ChIJaZsqw1GsQG0RPmVmrzP41O8"},{"id":85,"name":"Hutt City Health Centre","address":"Level 2, 5 Raroa Road, Lower Hutt","pho":"Te Awakairangi Health Network","phone":"(04) 576 2009","url":"http://www.teawakairangihealth.org.nz/practice-and-fees","prices":[{"age":0,"price":0},{"age":13,"price":20},{"age":18,"price":28},{"age":25,"price":41},{"age":45,"price":41},{"age":65,"price":34.5}],"lat":"-41.2069807","lng":"174.9090734","restriction":"","place_id":"ChIJ0QCjZ_iqOG0Rw_PsyBbyFMA"},{"id":86,"name":"Hutt City Health Centre(WOA)","address":"6D The Strand, Wainuiomata","pho":"Te Awakairangi Health Network","phone":"(04) 920 2280","url":"http://www.teawakairangihealth.org.nz/practice-and-fees","prices":"","lat":"-41.2598508","lng":"174.9420977","restriction":"","place_id":"ChIJ0QCjZ_iqOG0Rw_PsyBbyFMA"},{"id":87,"name":"Hutt Union Community Health Pomare","address":"51 Farmer Cres, Pomare, Lower Hutt","pho":"Te Awakairangi Health Network","phone":"(04) 567 6414","url":"http://www.teawakairangihealth.org.nz/practice-and-fees","prices":[{"age":0,"price":0},{"age":13,"price":0},{"age":18,"price":15},{"age":25,"price":15},{"age":45,"price":15},{"age":65,"price":5}],"lat":"-41.2091655","lng":"174.9080557","restriction":"","place_id":"ChIJk8gsls2qQG0RDTUlfPzRB60"},{"id":88,"name":"Hutt Union Community Health Petone","address":"451 Jackson St, Petone","pho":"Te Awakairangi Health Network","phone":"(04) 568 6392","url":"http://www.teawakairangihealth.org.nz/practice-and-fees","prices":[{"age":0,"price":0},{"age":13,"price":0},{"age":18,"price":15},{"age":25,"price":15},{"age":45,"price":15},{"age":65,"price":5}],"lat":"-41.2297522","lng":"174.8943708","restriction":"","place_id":"ChIJ90QjOcqrOG0R52UA8JFV1Us"},{"id":89,"name":"Kopata Medical Centre","address":"60 Bloomfield Terrace, Lower Hutt","pho":"Te Awakairangi Health Network","phone":"(04) 569 9009","url":"http://www.teawakairangihealth.org.nz/practice-and-fees","prices":[{"age":0,"price":0},{"age":13,"price":37},{"age":18,"price":40},{"age":25,"price":40},{"age":45,"price":40},{"age":65,"price":37}],"lat":"-41.2088249","lng":"174.9086706","restriction":"","place_id":"ChIJh2Rc_leqOG0RXKZW9FuWhqI"},{"id":90,"name":"Main Street Surgery","address":"49-51 Main Street, Upper Hutt","pho":"Te Awakairangi Health Network","phone":"(04) 527 7401","url":"http://www.teawakairangihealth.org.nz/practice-and-fees","prices":"","lat":"-41.1245146","lng":"175.0680402","restriction":"","place_id":"ChIJ20kjlNDZ3IARvAdF-5rkmFo"},{"id":91,"name":"Manuka Health Centre","address":"11 Hector Street, Petone","pho":"Te Awakairangi Health Network","phone":"(04) 939 1299","url":"http://www.teawakairangihealth.org.nz/practice-and-fees","prices":[{"age":0,"price":0},{"age":13,"price":12},{"age":18,"price":17.5},{"age":25,"price":17.5},{"age":45,"price":17.5},{"age":65,"price":17.5}],"lat":"-41.2189067","lng":"174.8771295","restriction":"","place_id":"ChIJkeB925erOG0RilD8NZVnS_E"},{"id":92,"name":"Muritai Health Centre","address":"149 Muritai Road, Eastbourne","pho":"Te Awakairangi Health Network","phone":"(04) 562 7606","url":"http://www.teawakairangihealth.org.nz/practice-and-fees","prices":[{"age":0,"price":0},{"age":13,"price":28.5},{"age":18,"price":40.5},{"age":25,"price":40.5},{"age":45,"price":40.5},{"age":65,"price":40}],"lat":"-41.2903549","lng":"174.8984134","restriction":"","place_id":"ChIJSzGXfVWoOG0RexfLiTCUaqk"},{"id":93,"name":"Naenae Medical Centre","address":"39 Treadwell Street, Naenae","pho":"Te Awakairangi Health Network","phone":"(04) 567 1066","url":"http://www.teawakairangihealth.org.nz/practice-and-fees","prices":[{"age":0,"price":0},{"age":13,"price":23.5},{"age":18,"price":34.5},{"age":25,"price":34.5},{"age":45,"price":34.5},{"age":65,"price":29.5}],"lat":"-41.1984974","lng":"174.9486259","restriction":"","place_id":"ChIJcx3yD2VVR20RVNta9UR3gpo"},{"id":94,"name":"Petone Medical Centre 2009 Ltd","address":"32 Richmond Street, Petone","pho":"Te Awakairangi Health Network","phone":"(04) 939 9868","url":"http://www.teawakairangihealth.org.nz/practice-and-fees","prices":"","lat":"-41.2259499","lng":"174.8774874","restriction":"","place_id":"ChIJh2Rc_leqOG0RXKZW9FuWhqI"},{"id":95,"name":"Pretoria Street Surgery","address":"35 Pretoria Street, Lower Hutt","pho":"Te Awakairangi Health Network","phone":"(04) 939 3330","url":"http://www.teawakairangihealth.org.nz/practice-and-fees","prices":[{"age":0,"price":0},{"age":13,"price":46},{"age":18,"price":46},{"age":25,"price":47},{"age":45,"price":49},{"age":65,"price":41}],"lat":"-41.2069335","lng":"174.9136508","restriction":"","place_id":"ChIJsblaevaqOG0R-jSsfmaXnA8"},{"id":96,"name":"Ropata Medical Center","address":"577 High Street, Lower Hutt","pho":"Te Awakairangi Health Network","phone":"(04) 920 0800","url":"http://www.teawakairangihealth.org.nz/practice-and-fees","prices":"","lat":"-41.2037162","lng":"174.9166952","restriction":"","place_id":"ChIJI8T_gfOqOG0RZ4_2XVkxHys"},{"id":80,"name":"Dr Hans Snoek","address":"29 Kings Crescent, Lower Hutt","pho":"Te Awakairangi Health Network","phone":"(04) 569 5601","url":"http://www.teawakairangihealth.org.nz/practice-and-fees","prices":[{"age":0,"price":0},{"age":13,"price":26},{"age":18,"price":37.5},{"age":25,"price":40},{"age":45,"price":39.5},{"age":65,"price":38}],"lat":"-41.2079044","lng":"174.9094343","restriction":"","place_id":"ChIJrdD9-feqOG0Rcz19QPdHyAs"},{"id":82,"name":"Fergusson Drive Surgery","address":"786 Fergusson Drive, Upper Hutt","pho":"Te Awakairangi Health Network","phone":"(04) 528 3048","url":"http://www.teawakairangihealth.org.nz/practice-and-fees","prices":[{"age":0,"price":0},{"age":13,"price":38},{"age":18,"price":38.5},{"age":25,"price":43},{"age":45,"price":43},{"age":65,"price":37.5}],"lat":"-41.1253295","lng":"175.0643225","restriction":"","place_id":"ChIJLcSLqFKsQG0Rkr2XkNk4KWk"},{"id":110,"name":"Nelson Family Medicine Ltd","address":"132 Collingwood St, Nelson 7010","pho":"Nelson Bays PHO","phone":"03 548 0918","url":"http://www.nbph.org.nz/nelson-family-medicine","prices":[{"age":0,"price":0},{"age":13,"price":36},{"age":18,"price":45},{"age":25,"price":45},{"age":45,"price":45},{"age":65,"price":38}],"lat":"-41.2749672","lng":"173.2865994","restriction":"","place_id":null},{"id":111,"name":"Rata Medical","address":"127 Collingwood St, Nelson 7010","pho":"Nelson Bays PHO","phone":"03 548 7929","url":"http://www.nbph.org.nz/rata-medical/","prices":[{"age":0,"price":0},{"age":13,"price":35},{"age":18,"price":45},{"age":25,"price":45},{"age":45,"price":45},{"age":65,"price":45}],"lat":"-41.2749051","lng":"173.2871192","restriction":"","place_id":null},{"id":112,"name":"St Lukeâ€™s Health Centre","address":"105 Waimea Rd, Nelson 7010","pho":"Nelson Bays PHO","phone":"03 548 1858","url":"http://www.nbph.org.nz/st-lukes-health-centre","prices":[{"age":0,"price":0},{"age":13,"price":11.5},{"age":18,"price":17.5},{"age":25,"price":17.5},{"age":45,"price":17.5},{"age":65,"price":17.5}],"lat":"-41.2891343","lng":"173.2723379","restriction":"","place_id":null},{"id":106,"name":"Harley Street Medical","address":"14 Harley St, Nelson 7010","pho":"Nelson Bays PHO","phone":"03 548 2763","url":"http://www.nbph.org.nz/harley-street-medical/","prices":[{"age":0,"price":0},{"age":13,"price":33},{"age":18,"price":36},{"age":25,"price":43},{"age":45,"price":43.5},{"age":65,"price":41}],"lat":"-41.2737229","lng":"173.28787160000002","restriction":"","place_id":null},{"id":107,"name":"Nelson City Medical Centre","address":"298 Hardy St, Nelson 7010","pho":"Nelson Bays PHO","phone":"03 546 8086","url":"http://www.nbph.org.nz/dr-hilsons-practice/","prices":[{"age":0,"price":0},{"age":13,"price":31},{"age":18,"price":42},{"age":25,"price":43.5},{"age":45,"price":44},{"age":65,"price":38.5}],"lat":"-41.2745641","lng":"173.2871368","restriction":"","place_id":null},{"id":108,"name":"Dr. Janice Jolly","address":"52 Waimea Rd, Nelson 7010","pho":"Nelson Bays PHO","phone":"03 548 2736","url":"http://www.nbph.org.nz/dr-jollys-practice","prices":[{"age":0,"price":0},{"age":13,"price":34},{"age":18,"price":39},{"age":25,"price":39},{"age":45,"price":39.5},{"age":65,"price":39}],"lat":"-41.2828968","lng":"173.277545","restriction":"","place_id":null},{"id":113,"name":"Tima Health","address":"46 Waimea Rd, Nelson 7010","pho":"Nelson Bays PHO","phone":"03 548 8005","url":"http://www.nbph.org.nz/tima-health-ltd-drs-stubbs-and-hayes/","prices":[{"age":0,"price":0},{"age":13,"price":30},{"age":18,"price":38},{"age":25,"price":40},{"age":45,"price":42},{"age":65,"price":40}],"lat":"-41.2824119","lng":"173.2780348","restriction":"","place_id":null},{"id":99,"name":"Stokes Valley Health Centre","address":"180 Stokes Valley Rd, Stokes Valley","pho":"Te Awakairangi Health Network","phone":"(04) 563 8200","url":"http://www.teawakairangihealth.org.nz/practice-and-fees","prices":"","lat":"-41.1732908","lng":"174.9821728","restriction":"","place_id":"ChIJAf1DG9OqQG0R0KLXeZ_7Qqg"},{"id":100,"name":"Taita Medical Centre","address":"1205 High Street, Taita","pho":"Te Awakairangi Health Network","phone":"(04) 939 7390","url":"http://www.teawakairangihealth.org.nz/practice-and-fees","prices":[{"age":0,"price":0},{"age":13,"price":12},{"age":18,"price":17.5},{"age":25,"price":17.5},{"age":45,"price":17.5},{"age":65,"price":17.5}],"lat":"-41.1796274","lng":"174.9605362","restriction":"","place_id":"ChIJU7l0IkhVR20RlZMEz2YTCz0"},{"id":101,"name":"Upper Hutt Health Centre","address":"Queen Street Carpark, Upper Hutt","pho":"Te Awakairangi Health Network","phone":"(04) 920 1800","url":"http://www.teawakairangihealth.org.nz/practice-and-fees","prices":[{"age":0,"price":0},{"age":13,"price":32.5},{"age":18,"price":41.5},{"age":25,"price":45.5},{"age":45,"price":45},{"age":65,"price":31.5}],"lat":"-41.1244327","lng":"175.0707834","restriction":"","place_id":"ChIJBxEnp7GtQG0Ryl3Qo1GV6ck"},{"id":102,"name":"Vibe","address":"4 Daly Street, Lower Hutt","pho":"Te Awakairangi Health Network","phone":"(04) 566 0525","url":"http://www.teawakairangihealth.org.nz/practice-and-fees","prices":"","lat":"-41.2099892","lng":"174.9005554","restriction":"","place_id":"ChIJLakcU3ivOG0RdN9emvHZv0w"},{"id":103,"name":"Waiwhetu Medical Centre","address":"148 Whitesline East, Waiwhetu","pho":"Te Awakairangi Health Network","phone":"(04) 569  2436","url":"http://www.teawakairangihealth.org.nz/practice-and-fees","prices":[{"age":0,"price":0},{"age":13,"price":22.5},{"age":18,"price":28.5},{"age":25,"price":31.5},{"age":45,"price":31.5},{"age":65,"price":21}],"lat":"-41.2241214","lng":"174.9214725","restriction":"","place_id":"ChIJkQXlhmmqOG0R_pfLf2-5E9w"},{"id":97,"name":"Silverstream Health Centre Ltd","address":"7 Kiln Street, Upper Hutt","pho":"Te Awakairangi Health Network","phone":"(04) 527 7376","url":"http://www.teawakairangihealth.org.nz/practice-and-fees","prices":[{"age":0,"price":0},{"age":13,"price":32},{"age":18,"price":40.5},{"age":25,"price":43.5},{"age":45,"price":44},{"age":65,"price":35}],"lat":"-41.1480345","lng":"175.0112524","restriction":"","place_id":"ChIJJyIuSm-rQG0RWak7Hk8qPMA"},{"id":98,"name":"Soma Medical Centre","address":"23 Ludham Crescent, Lower Hutt","pho":"Te Awakairangi Health Network","phone":"(04) 569 4353","url":"http://www.teawakairangihealth.org.nz/practice-and-fees","prices":[{"age":0,"price":0},{"age":13,"price":22.5},{"age":18,"price":36},{"age":25,"price":37.5},{"age":45,"price":36},{"age":65,"price":34.5}],"lat":"-41.2214228","lng":"174.9067891","restriction":"","place_id":"ChIJ0QCjZ_iqOG0R4tHvCeVJoQU"},{"id":109,"name":"Nelson East Family Medical Centre","address":"7 Alton St, Nelson 7010","pho":"Nelson Bays PHO","phone":"03 546 8239","url":"http://www.nbph.org.nz/nelson-east-family-medicine","prices":[{"age":0,"price":0},{"age":13,"price":25},{"age":18,"price":25},{"age":25,"price":41},{"age":45,"price":42},{"age":65,"price":41}],"lat":"-41.27508700000001","lng":"173.2899029","restriction":"","place_id":null},{"id":115,"name":"The Doctors, Nelson","address":"2/105 Collingwood St, Nelson 7010","pho":"Nelson Bays PHO","phone":"03 548 8663","url":"http://www.nbph.org.nz/the-doctors","prices":[{"age":0,"price":0},{"age":13,"price":27},{"age":18,"price":35},{"age":25,"price":38},{"age":45,"price":38},{"age":65,"price":38}],"lat":"-41.2736923","lng":"173.2871673","restriction":"","place_id":null},{"id":116,"name":"Tahunanui Medical Centre","address":"23 Tahunanui Drive, Nelson 7011","pho":"Nelson Bays PHO","phone":"03 548 5154","url":"http://www.nbph.org.nz/tahunanui-medical-centre","prices":[{"age":0,"price":0},{"age":13,"price":24},{"age":18,"price":36},{"age":25,"price":42},{"age":45,"price":42},{"age":65,"price":42}],"lat":"-41.2814593","lng":"173.2496309","restriction":"","place_id":null},{"id":117,"name":"Stoke Medical Centre","address":"470 Main Road Stoke, Stoke, Nelson 7011","pho":"Nelson Bays PHO","phone":"03 547 7488","url":"http://www.nbph.org.nz/stoke-medical-centre","prices":[{"age":0,"price":0},{"age":13,"price":33},{"age":18,"price":37},{"age":25,"price":42},{"age":45,"price":42},{"age":65,"price":39.5}],"lat":"-41.3105859","lng":"173.2360171","restriction":"","place_id":null},{"id":118,"name":"Florence Medical Centre","address":"13 Salisbury Rd, Richmond, Nelson 7020","pho":"Nelson Bays PHO","phone":"03 544 8080","url":"http://www.nbph.org.nz/florence-medical-centre","prices":[{"age":0,"price":0},{"age":13,"price":32},{"age":18,"price":40},{"age":25,"price":44},{"age":45,"price":44},{"age":65,"price":42}],"lat":"-41.3415304","lng":"173.1893189","restriction":"","place_id":null},{"id":119,"name":"Richmond Health Centre","address":"40a Oxford St, Richmond, Nelson 7020","pho":"Nelson Bays PHO","phone":"03 544 2255","url":"http://www.nbph.org.nz/richmond-health-centre","prices":[{"age":0,"price":0},{"age":13,"price":28.5},{"age":18,"price":40},{"age":25,"price":42},{"age":45,"price":42},{"age":65,"price":40}],"lat":"-41.3405672","lng":"173.1844534","restriction":"","place_id":null},{"id":120,"name":"Tasman Medical Centre","address":"6/355 Lower Queen St, Richmond, Nelson 7020","pho":"Nelson Bays PHO","phone":"03 544 7272","url":"http://www.nbph.org.nz/tasman-medical-centre","prices":[{"age":0,"price":0},{"age":13,"price":35},{"age":18,"price":40},{"age":25,"price":45},{"age":45,"price":45},{"age":65,"price":43}],"lat":"-41.3347181","lng":"173.1793219","restriction":"","place_id":null},{"id":121,"name":"Washbourn Medical Centre","address":"12 Oxford St, Richmond, Nelson 7020","pho":"Nelson Bays PHO","phone":"03 544 8847","url":"http://www.nbph.org.nz/washbourn-medical-centre","prices":[{"age":0,"price":0},{"age":13,"price":30},{"age":18,"price":38},{"age":25,"price":43},{"age":45,"price":43},{"age":65,"price":42}],"lat":"-41.3428256","lng":"173.1868525","restriction":"","place_id":null},{"id":122,"name":"Mapua Health Centre","address":"62 Aranui Rd, Mapua 7005","pho":"Nelson Bays PHO","phone":"03 540 2211","url":"http://www.nbph.org.nz/mapua-health-centre","prices":[{"age":0,"price":0},{"age":13,"price":31},{"age":18,"price":36},{"age":25,"price":38},{"age":45,"price":40},{"age":65,"price":34}],"lat":"-41.2533629","lng":"173.0959689","restriction":"","place_id":null},{"id":124,"name":"Greenwood Health","address":"20 Greenwood St, Motueka 7120","pho":"Nelson Bays PHO","phone":"03 528 8866","url":"http://www.nbph.org.nz/greenwood-health","prices":[{"age":0,"price":0},{"age":13,"price":21},{"age":18,"price":34},{"age":25,"price":34},{"age":45,"price":34},{"age":65,"price":34}],"lat":"-41.1099241","lng":"173.0124084","restriction":"","place_id":null},{"id":125,"name":"Wakefield Health Centre","address":"12 Edward St, Wakefield 7025","pho":"Nelson Bays PHO","phone":"03 541 8911","url":"http://www.nbph.org.nz/wakefield-health-centre","prices":[{"age":0,"price":0},{"age":13,"price":31},{"age":18,"price":43},{"age":25,"price":46.5},{"age":45,"price":46.5},{"age":65,"price":43}],"lat":"-41.4065847","lng":"173.0419442","restriction":"","place_id":null},{"id":126,"name":"Golden Bay Community Health","address":"10 Central Takaka Road, RD1, Takaka 7183","pho":"Nelson Bays PHO","phone":"03 525 0060","url":"http://www.nbph.org.nz/golden-bay-community-health","prices":[{"age":0,"price":0},{"age":13,"price":24},{"age":18,"price":45.5},{"age":25,"price":45.5},{"age":45,"price":45.5},{"age":65,"price":43}],"lat":"-40.8782825","lng":"172.81697529999997","restriction":"","place_id":null},{"id":128,"name":"Albany Basin Accident and Medical","address":"Corner Unsworth Drive & Upper Harbour Highway, Unsworth Heights, Auckland","pho":"Comprehensive Care","phone":"09 443 7777 ","url":"http://www.comprehensivecare.co.nz/directory/albany-basin-accident-and-medical/","prices":[{"age":0,"price":0},{"age":13,"price":41},{"age":18,"price":45},{"age":25,"price":54},{"age":45,"price":54},{"age":65,"price":49}],"lat":"-36.7533823","lng":"174.7104957","restriction":"","place_id":null},{"id":871,"name":"Whangaparaoa Medical Centre","address":"16 Wade River Road, Arkles Bay, Whangaparaoa","pho":"Procare Networks","phone":"(09) 424 8618","url":"http://procare.co.nz/","prices":[{"age":0,"price":0},{"age":6,"price":0},{"age":13,"price":25},{"age":18,"price":35},{"age":25,"price":45},{"age":45,"price":45},{"age":65,"price":40}],"lat":"-36.6379845","lng":"174.7472965","restriction":"","place_id":"ChIJWfye3xMlDW0R5Q3d0MCnfD4"},{"id":129,"name":"Albany Family Medical Centre","address":"368 Albany Highway, Albany, Auckland","pho":"Comprehensive Care","phone":"09 415 8959 ","url":"http://www.comprehensivecare.co.nz/directory/albany-family-medical-centre/","prices":[{"age":0,"price":0},{"age":13,"price":35},{"age":18,"price":45},{"age":25,"price":53},{"age":45,"price":55},{"age":65,"price":45}],"lat":"-36.743011","lng":"174.692466","restriction":"","place_id":null},{"id":114,"name":"The Nelson Health Centre","address":"105 Kawai St, Nelson 7010","pho":"Nelson Bays PHO","phone":"03 545 6364","url":"http://www.nbph.org.nz/the-nelson-health-centre/","prices":[{"age":0,"price":0},{"age":13,"price":30},{"age":18,"price":39},{"age":25,"price":39},{"age":45,"price":39},{"age":65,"price":39}],"lat":"-41.284655","lng":"173.2745816","restriction":"","place_id":null},{"id":133,"name":"Birkdale Family Doctors Ltd","address":"93 Birkdale Road, Birkdale, Auckland","pho":"Comprehensive Care","phone":"09 483 7228 ","url":"http://www.comprehensivecare.co.nz/directory/birkdale-family-doctors-ltd/","prices":[{"age":0,"price":0},{"age":13,"price":27},{"age":18,"price":42},{"age":25,"price":42},{"age":45,"price":42},{"age":65,"price":37}],"lat":"-36.7995835","lng":"174.7025042","restriction":"","place_id":null},{"id":134,"name":"Birkenhead Medical Centre","address":"4 Rawene Road, Birkenhead, Auckland","pho":"Comprehensive Care","phone":"09 419 1636 ","url":"http://www.comprehensivecare.co.nz/directory/birkenhead-medical-centre/","prices":[{"age":0,"price":0},{"age":13,"price":45},{"age":18,"price":62},{"age":25,"price":62},{"age":45,"price":62},{"age":65,"price":60.5}],"lat":"-36.8135292","lng":"174.7263806","restriction":"","place_id":null},{"id":136,"name":"Browns Bay Medical Centre","address":"32 Anzac Road, Browns Bay, Auckland","pho":"Comprehensive Care","phone":"09 479 5422 ","url":"http://www.comprehensivecare.co.nz/directory/browns-bay-medical-centre/","prices":[{"age":0,"price":0},{"age":13,"price":37},{"age":18,"price":44},{"age":25,"price":52},{"age":45,"price":52},{"age":65,"price":44}],"lat":"-36.7170484","lng":"174.7461076","restriction":"","place_id":null},{"id":138,"name":"Coastcare Birkenhead","address":"121 Birkenhead Avenue, Birkenhead, Auckland","pho":"Comprehensive Care","phone":"09 419 2180 ","url":"http://www.comprehensivecare.co.nz/directory/coastcare-birkenhead/","prices":[{"age":0,"price":0},{"age":13,"price":36},{"age":18,"price":50},{"age":25,"price":50},{"age":45,"price":50},{"age":65,"price":48}],"lat":"-36.80736419999999","lng":"174.7258375","restriction":"","place_id":null},{"id":139,"name":"Coastcare Chartwell","address":"31 Chartwell Avenue, Glenfield, Auckland","pho":"Comprehensive Care","phone":"09 444 4610 ","url":"http://www.comprehensivecare.co.nz/directory/coastcare-chartwell/","prices":[{"age":0,"price":0},{"age":13,"price":37.5},{"age":18,"price":41.5},{"age":25,"price":41.5},{"age":45,"price":41.5},{"age":65,"price":41.5}],"lat":"-36.7832449","lng":"174.7315888","restriction":"","place_id":null},{"id":142,"name":"East Coast Bays Doctors","address":"512 East Coast Road, Windsor Park, Auckland ","pho":"Comprehensive Care","phone":"09 478 9600  ","url":"http://www.comprehensivecare.co.nz/directory/east-coast-bays-doctors/","prices":[{"age":0,"price":15},{"age":6,"price":20},{"age":13,"price":35},{"age":18,"price":50},{"age":25,"price":55},{"age":45,"price":55},{"age":65,"price":40}],"lat":"-36.740348","lng":"174.7418538","restriction":"","place_id":null},{"id":131,"name":"Beachhaven Medical","address":"330 Rangatira Road, Beach Haven, Auckland","pho":"Comprehensive Care","phone":"09 483 6422 ","url":"http://www.comprehensivecare.co.nz/directory/beachhaven-medical/","prices":[{"age":0,"price":0},{"age":13,"price":41},{"age":18,"price":48},{"age":25,"price":55},{"age":45,"price":55},{"age":65,"price":55}],"lat":"-36.7933592","lng":"174.6876548","restriction":"","place_id":"ChIJR3NxhSo_DW0Rifo4mmA2uYQ"},{"id":143,"name":"Family Medicine Birkenhead","address":"29 Birkenhead Avenue, Birkenhead, Auckland","pho":"Comprehensive Care","phone":"09 480 7204 ","url":"http://www.comprehensivecare.co.nz/directory/family-medicine-birkenhead/","prices":[{"age":0,"price":0},{"age":13,"price":32},{"age":18,"price":48},{"age":25,"price":49},{"age":45,"price":49},{"age":65,"price":49}],"lat":"-36.81152","lng":"174.7264104","restriction":"","place_id":"ChIJ05ND9vM4DW0RS6TDl-21qDU"},{"id":144,"name":"Fenwick Medical Centre","address":"217 Shakespeare Road, Milford, Auckland","pho":"Comprehensive Care","phone":"09 486 3248 ","url":"http://www.comprehensivecare.co.nz/directory/fenwick-medical-centre/","prices":[{"age":0,"price":0},{"age":13,"price":32},{"age":18,"price":37},{"age":25,"price":43},{"age":45,"price":43},{"age":65,"price":37}],"lat":"-36.7819274","lng":"174.7530007","restriction":"","place_id":"ChIJKc0b6uc5DW0RHD1Pi-fSQ3g"},{"id":132,"name":"Belmont Medical Centre","address":"3 Williamson Avenue, Belmont, Auckland","pho":"Comprehensive Care","phone":"09 445 1215 ","url":"http://www.comprehensivecare.co.nz/directory/belmont-medical-centre/","prices":[{"age":0,"price":0},{"age":13,"price":38},{"age":18,"price":48},{"age":25,"price":48},{"age":45,"price":50},{"age":65,"price":47}],"lat":"-36.808346","lng":"174.7904833","restriction":"","place_id":null},{"id":137,"name":"Byron Medical","address":"2 Byron Avenue, Takapuna, Auckland","pho":"Comprehensive Care","phone":"09 486 2122 ","url":"http://www.comprehensivecare.co.nz/directory/byron-medical/","prices":[{"age":0,"price":0},{"age":13,"price":25},{"age":18,"price":48},{"age":25,"price":53},{"age":45,"price":54},{"age":65,"price":44}],"lat":"-36.7906436","lng":"174.7725791","restriction":"","place_id":null},{"id":145,"name":"Fred Thomas Health Family Medical Centre","address":"2 Fred Thomas Drive, Takapuna, Auckland ","pho":"Comprehensive Care","phone":"09 972 9020 ","url":"http://www.comprehensivecare.co.nz/directory/fred-thomas-health/","prices":[{"age":0,"price":0},{"age":13,"price":46},{"age":18,"price":47},{"age":25,"price":57},{"age":45,"price":57},{"age":65,"price":51}],"lat":"-36.7912102","lng":"174.763653","restriction":"","place_id":null},{"id":140,"name":"Devonport Medical Centre","address":"82 Lake Road, Narrow Neck, Auckland","pho":"Comprehensive Care","phone":"09 445 8006 ","url":"http://www.comprehensivecare.co.nz/directory/devonport-medical-centre/","prices":[{"age":0,"price":0},{"age":13,"price":42},{"age":18,"price":42},{"age":25,"price":52},{"age":45,"price":55},{"age":65,"price":52}],"lat":"-36.8129655","lng":"174.792624","restriction":"","place_id":"ChIJWwrjcJY3DW0R33y1NXH1aY0"},{"id":147,"name":"Glenfield Medical Centre","address":"452 Glenfield Road, Glenfield, Auckland","pho":"Comprehensive Care","phone":"09 444 5911 ","url":"http://www.comprehensivecare.co.nz/directory/glenfield-medical-centre/","prices":[{"age":0,"price":0},{"age":13,"price":34},{"age":18,"price":34.5},{"age":25,"price":39},{"age":45,"price":39},{"age":65,"price":35.5}],"lat":"-36.7802116","lng":"174.7214199","restriction":"","place_id":"ChIJ4XW0KA45DW0Rd38eslHmiQo"},{"id":149,"name":"HealthZone","address":"17 Antares Place, Rosedale, Auckland","pho":"Comprehensive Care","phone":"09 477 2090 ","url":"http://www.comprehensivecare.co.nz/directory/healthzone-institute-for-sport-and-health/","prices":[{"age":0,"price":0},{"age":13,"price":35},{"age":18,"price":39},{"age":25,"price":52},{"age":45,"price":52},{"age":65,"price":41}],"lat":"-36.7421613","lng":"174.7331282","restriction":"","place_id":"ChIJgzORay06DW0RSEygHJD2Ui4"},{"id":152,"name":"Kowhai Clinic","address":"424 Glenfield Road, Glenfield, Auckland","pho":"Comprehensive Care","phone":"09 444 2098 ","url":"http://www.comprehensivecare.co.nz/directory/kowhai-clinic/","prices":[{"age":0,"price":0},{"age":13,"price":30},{"age":18,"price":41},{"age":25,"price":45},{"age":45,"price":45},{"age":65,"price":34}],"lat":"-36.7826583","lng":"174.7205315","restriction":"","place_id":null},{"id":153,"name":"Medplus","address":"327 Lake Road, Hauraki, Auckland","pho":"Comprehensive Care","phone":"09 489 2011 ","url":"http://www.comprehensivecare.co.nz/directory/medplus/","prices":[{"age":0,"price":0},{"age":13,"price":49},{"age":18,"price":52},{"age":25,"price":58},{"age":45,"price":58},{"age":65,"price":52}],"lat":"-36.7976547","lng":"174.7790836","restriction":"","place_id":null},{"id":155,"name":"Northcote Point Doctors","address":"73 Onewa Road, Northcote, Auckland","pho":"Comprehensive Care","phone":"09 480 9309 ","url":"http://www.comprehensivecare.co.nz/directory/northcote-point-doctors/","prices":[{"age":0,"price":0},{"age":13,"price":22},{"age":18,"price":38},{"age":25,"price":43},{"age":45,"price":43},{"age":65,"price":38}],"lat":"-36.8104457","lng":"174.7417506","restriction":"","place_id":null},{"id":156,"name":"Onewa Doctors","address":"225 Onewa Road, Birkenhead, Auckland","pho":"Comprehensive Care","phone":"09 418 3832 ","url":"http://www.comprehensivecare.co.nz/directory/onewa-doctors/","prices":[{"age":0,"price":0},{"age":13,"price":38},{"age":18,"price":55},{"age":25,"price":59.5},{"age":45,"price":60.5},{"age":65,"price":44}],"lat":"-36.8097745","lng":"174.7272158","restriction":"","place_id":null},{"id":157,"name":"Sunnynook Medical Centre Ltd","address":"119 Sunnynook Road, Forrest Hill, Auckland","pho":"Comprehensive Care","phone":"09 410 5331  ","url":"http://www.comprehensivecare.co.nz/directory/sunnynook-medical-centre/","prices":[{"age":0,"price":0},{"age":13,"price":46},{"age":18,"price":50},{"age":25,"price":56},{"age":45,"price":57},{"age":65,"price":51}],"lat":"-36.7604783","lng":"174.7406581","restriction":"","place_id":null},{"id":158,"name":"Sunset Road Family Doctors","address":"Unit 3/317 Sunset Road, Sunnynook, Auckland","pho":"Comprehensive Care","phone":"09 478 2878 ","url":"http://www.comprehensivecare.co.nz/directory/sunset-road-family-doctors/","prices":[{"age":0,"price":0},{"age":13,"price":37},{"age":18,"price":48},{"age":25,"price":53},{"age":45,"price":54},{"age":65,"price":42}],"lat":"-36.7470898","lng":"174.739815","restriction":"","place_id":null},{"id":159,"name":"Takapuna Healthcare","address":"25 Bracken Avenue, Takapuna, Auckland","pho":"Comprehensive Care","phone":"09 489 5867 ","url":"http://www.comprehensivecare.co.nz/directory/takapuna-healthcare/","prices":[{"age":0,"price":0},{"age":13,"price":40},{"age":18,"price":55},{"age":25,"price":55},{"age":45,"price":55},{"age":65,"price":53.5}],"lat":"-36.7919068","lng":"174.7712171","restriction":"","place_id":null},{"id":151,"name":"Kitchener Road Medical Centre","address":"174 Kitchener Road, Milford, Auckland","pho":"Comprehensive Care","phone":"09 489 4092 ","url":"http://www.comprehensivecare.co.nz/directory/kitchener-road-medical-centre/","prices":[{"age":0,"price":0},{"age":13,"price":34},{"age":18,"price":46},{"age":25,"price":58},{"age":45,"price":58},{"age":65,"price":58}],"lat":"-36.7726722","lng":"174.7650834","restriction":"","place_id":null},{"id":160,"name":"Torbay Community Doctors","address":"987 Beach Road, Torbay, Auckland","pho":"Comprehensive Care","phone":"09 473 9594 ","url":"http://www.comprehensivecare.co.nz/directory/torbay-community-doctor/","prices":[{"age":0,"price":0},{"age":6,"price":30},{"age":13,"price":40},{"age":18,"price":50},{"age":25,"price":59},{"age":45,"price":58},{"age":65,"price":58}],"lat":"-36.6943784","lng":"174.7508016","restriction":"","place_id":null},{"id":161,"name":"Torbay Health (Torbay Medical Centre, Torbay Skin Clinic)","address":"1042 Beach Road, Torbay, Auckland","pho":"Comprehensive Care","phone":"09 477 9000  ","url":"http://www.comprehensivecare.co.nz/directory/torbay-medical-centre/","prices":[{"age":0,"price":0},{"age":13,"price":44},{"age":18,"price":49},{"age":25,"price":49},{"age":45,"price":53},{"age":65,"price":48}],"lat":"-36.6953635","lng":"174.751502","restriction":"","place_id":null},{"id":154,"name":"North Harbour Medical Centre","address":"16 / 326 Sunset Road, Windsor Park, Auckland","pho":"Comprehensive Care","phone":"09 479 2083 ","url":"http://www.comprehensivecare.co.nz/directory/north-harbour-medical-centre/","prices":[{"age":0,"price":0},{"age":13,"price":31},{"age":18,"price":45},{"age":25,"price":45},{"age":45,"price":45},{"age":65,"price":43}],"lat":"-36.7470136","lng":"174.7392494","restriction":"","place_id":null},{"id":150,"name":"Integrated Medical Centre","address":"511 South Titirangi Road, Titirangi","pho":"Comprehensive Care","phone":"09 817 6772 ","url":"http://www.comprehensivecare.co.nz/directory/integrated-medical-centre/","prices":[{"age":0,"price":0},{"age":13,"price":45},{"age":18,"price":45},{"age":25,"price":45},{"age":45,"price":45},{"age":65,"price":44}],"lat":"-36.938972","lng":"174.6549189","restriction":"","place_id":null},{"id":874,"name":"The Fono Blockhouse Bay","address":"297 Blockhouse Bay Road, Blockhouse Bay, Auckland","pho":"Procare Networks","phone":"(09) 828 8421","url":"http://procare.co.nz/","prices":[{"age":0,"price":0},{"age":6,"price":0},{"age":13,"price":10},{"age":18,"price":17},{"age":25,"price":17},{"age":45,"price":17},{"age":65,"price":10}],"lat":"-36.9120232","lng":"174.7019808","restriction":"","place_id":null},{"id":931,"name":"Leabank Health Centre","address":"100 Weymouth Road, Manurewa, Auckland","pho":"Procare Networks","phone":"(09) 267 1580","url":"http://procare.co.nz/","prices":[{"age":0,"price":0},{"age":6,"price":0},{"age":13,"price":11.5},{"age":18,"price":17.5},{"age":25,"price":17.5},{"age":45,"price":17.5},{"age":65,"price":17.5}],"lat":"-37.0276997","lng":"174.8878926","restriction":"","place_id":null},{"id":190,"name":"Epsom Medical Care","address":"272 Manukau Road,Epsom, Auckland","pho":"NHC Central Auckland","phone":"(09) 523 3488","url":"http://www.healthpoint.co.nz/doctors/gp/epsom-medical-care/","prices":[{"age":0,"price":0},{"age":6,"price":11.5},{"age":18,"price":17.5},{"age":25,"price":17.5},{"age":45,"price":17.5},{"age":65,"price":17.5}],"lat":"-36.8862775","lng":"174.7757908","restriction":"","place_id":null},{"id":165,"name":"Aotea Health","address":"Great Barrier Island","pho":"Auckland PHO","phone":"09 4290356","url":"http://www.aucklandpho.co.nz/index.php?mact=CompanyDirectory,cntnt01,details,0&cntnt01companyid=6&cntnt01returnid=116","prices":[{"age":0,"price":0},{"age":13,"price":11.5},{"age":18,"price":17.5},{"age":25,"price":17.5},{"age":45,"price":17.5},{"age":65,"price":17.5}],"lat":"-36.197282","lng":"175.416921","restriction":"","place_id":"ChIJP0ilbMcNc20R9Qg19dAk2b4"},{"id":164,"name":"West Harbour Medical Centre","address":"86 Oreil Avenue, West Harbour, Auckland","pho":"Comprehensive Care","phone":"09 416 8315 ","url":"http://www.comprehensivecare.co.nz/directory/west-harbour-medical-centre/","prices":[{"age":0,"price":0},{"age":13,"price":12},{"age":18,"price":18},{"age":25,"price":17.5},{"age":45,"price":17.5},{"age":65,"price":17.5}],"lat":"-36.8230174","lng":"174.6239954","restriction":"","place_id":null},{"id":166,"name":"Auckland Central Medical","address":"326/28 College Hill, Freemans Bay, 1011","pho":"Auckland PHO","phone":"09 3600250 ","url":"http://www.aucklandpho.co.nz/index.php?mact=CompanyDirectory,cntnt01,details,0&cntnt01companyid=24&cntnt01returnid=116","prices":[{"age":0,"price":0},{"age":13,"price":24},{"age":18,"price":45},{"age":25,"price":55},{"age":45,"price":55},{"age":65,"price":33}],"lat":"-36.848806","lng":"174.749058","restriction":"","place_id":"ChIJc3tnZPpHDW0RK7bKxNspayI"},{"id":167,"name":"Avondale Family Doctor","address":"63 Rosebank Road Avondale 1746","pho":"Auckland PHO","phone":"09 828 8410 ","url":"http://www.aucklandpho.co.nz/index.php?mact=CompanyDirectory,cntnt01,details,0&cntnt01companyid=3&cntnt01returnid=116","prices":[{"age":0,"price":0},{"age":13,"price":12},{"age":18,"price":18},{"age":25,"price":18},{"age":45,"price":18},{"age":65,"price":18}],"lat":"-36.894376","lng":"174.69706","restriction":"","place_id":"ChIJT5oL0M5GDW0R9DiwlCI60Os"},{"id":168,"name":"Avondale Health Centre","address":"39 Layard Street (cnr St Jude St) Avondale","pho":"Auckland PHO","phone":"09 8282066","url":"http://www.aucklandpho.co.nz/index.php?mact=CompanyDirectory,cntnt01,details,0&cntnt01companyid=4&cntnt01returnid=116","prices":[{"age":0,"price":0},{"age":13,"price":21},{"age":18,"price":38},{"age":25,"price":38},{"age":45,"price":38},{"age":65,"price":35}],"lat":"33.435598","lng":"-112.349602","restriction":"","place_id":"ChIJO8Z2Z8hGDW0Ru3QV4qPtYwM"},{"id":169,"name":"Avondale Medical Centre","address":"256 Rosebank Road, Avondale, 1026","pho":"Auckland PHO","phone":"09 8288453","url":"http://www.aucklandpho.co.nz/index.php?mact=CompanyDirectory,cntnt01,details,0&cntnt01companyid=7&cntnt01returnid=116","prices":[{"age":0,"price":0},{"age":13,"price":0},{"age":18,"price":17},{"age":25,"price":17},{"age":45,"price":17},{"age":65,"price":17}],"lat":"-36.885796","lng":"174.6836","restriction":"","place_id":"ChIJDzsEaM5GDW0RHHcAyAfaN0k"},{"id":171,"name":"Calder Centre","address":"136-140 Hobson Street, Auckland City","pho":"Auckland PHO","phone":"09 3039266","url":"http://www.aucklandpho.co.nz/index.php?mact=CompanyDirectory,cntnt01,details,0&cntnt01companyid=8&cntnt01returnid=116","prices":[{"age":0,"price":0},{"age":13,"price":0},{"age":18,"price":16},{"age":25,"price":16},{"age":45,"price":16},{"age":65,"price":16}],"lat":"-36.850831","lng":"174.760684","restriction":"","place_id":"ChIJQSxOye9HDW0RG6zIJg49-SM"},{"id":172,"name":"Dominion Medical Centre","address":"349 Mount Albert Road, Mount Roskill 1041","pho":"Auckland PHO","phone":"09 6204986 ","url":"http://www.aucklandpho.co.nz/index.php?mact=CompanyDirectory,cntnt01,details,0&cntnt01companyid=9&cntnt01returnid=116","prices":[{"age":0,"price":0},{"age":13,"price":11},{"age":18,"price":17},{"age":25,"price":17},{"age":45,"price":17},{"age":65,"price":17}],"lat":"-36.903714","lng":"174.740025","restriction":"","place_id":"ChIJNYh3mGdGDW0RLOMDjL9uEMY"},{"id":174,"name":"Gabriel Medical Practice","address":"464 Richardson Road, Mount Roskill, 1041","pho":"Auckland PHO","phone":"09 6267750","url":"http://www.aucklandpho.co.nz/index.php?mact=CompanyDirectory,cntnt01,details,0&cntnt01companyid=11&cntnt01returnid=116","prices":[{"age":0,"price":0},{"age":13,"price":25},{"age":18,"price":30},{"age":25,"price":35},{"age":45,"price":35},{"age":65,"price":35}],"lat":"-36.912461","lng":"174.728103","restriction":"","place_id":"ChIJXyGvnYhGDW0R47VNs30Z-jc"},{"id":175,"name":"Glenavon Doctors Surgery","address":"271A Blockhouse Bay Road, Avondale, 0600","pho":"Auckland PHO","phone":"09 8286438","url":"http://www.aucklandpho.co.nz/index.php?mact=CompanyDirectory,cntnt01,details,0&cntnt01companyid=12&cntnt01returnid=116","prices":[{"age":0,"price":0},{"age":13,"price":11.5},{"age":18,"price":17.5},{"age":25,"price":17.5},{"age":45,"price":17.5},{"age":65,"price":17.5}],"lat":"-36.906688","lng":"174.701432","restriction":"","place_id":"ChIJgYX2MKVGDW0RBOGN0dNNhR8"},{"id":178,"name":"Mt Albert Medical Centre","address":"986 New North Road, Mount Albert, 1025","pho":"Auckland PHO","phone":"09 8467493","url":"http://www.aucklandpho.co.nz/index.php?mact=CompanyDirectory,cntnt01,details,0&cntnt01companyid=15&cntnt01returnid=116","prices":[{"age":0,"price":0},{"age":13,"price":30},{"age":18,"price":40},{"age":25,"price":47},{"age":45,"price":47},{"age":65,"price":47}],"lat":"-36.885609","lng":"174.714225","restriction":"","place_id":"ChIJ194Bz-ZGDW0Rqtlh6FyAkVM"},{"id":188,"name":"109 Doctors","address":"109 Queen Street,Auckland City, Auckland","pho":"NHC Central Auckland","phone":"(09) 366 0109","url":"http://www.healthpoint.co.nz/doctors/gp/109-doctors/","prices":[{"age":0,"price":0},{"age":6,"price":11.5},{"age":18,"price":17.5},{"age":25,"price":17.5},{"age":45,"price":17.5},{"age":65,"price":17.5}],"lat":"-36.8462319","lng":"174.7659345","restriction":"","place_id":null},{"id":189,"name":"Dominion Road Surgery","address":"123D Dominion Road,Mt Eden, Auckland","pho":"NHC Central Auckland","phone":"(09) 630 1212","url":"http://www.dominionroadsurgery.co.nz/","prices":[{"age":0,"price":0},{"age":6,"price":11.5},{"age":18,"price":17.5},{"age":25,"price":17.5},{"age":45,"price":17.5},{"age":65,"price":17.5}],"lat":"-36.8725822","lng":"174.7518855","restriction":"","place_id":null},{"id":375,"name":"West End Medical Centre","address":"84 Maunu Road, Whangarei","pho":"Manaia Health PHO","phone":"(09) 438 9050","url":"http://www.manaiapho.co.nz/node/105","prices":[{"age":0,"price":0},{"age":13,"price":11.5},{"age":18,"price":17.5},{"age":65,"price":17.5}],"lat":"-35.7311235","lng":"174.3106795","restriction":"","place_id":null},{"id":180,"name":"Oneroa Accident and Medical Centre","address":"132 Ocean View Road, Oneroa, Waiheke Island, 1081","pho":"Auckland PHO","phone":"09 3728756","url":"http://www.aucklandpho.co.nz/index.php?mact=CompanyDirectory,cntnt01,details,0&cntnt01companyid=16&cntnt01returnid=116","prices":[{"age":0,"price":0},{"age":13,"price":18},{"age":18,"price":33},{"age":25,"price":33},{"age":45,"price":33},{"age":65,"price":28}],"lat":"-36.783687","lng":"175.011003","restriction":"","place_id":"ChIJIQQoRujLcm0R3jwK-kNC5B0"},{"id":629,"name":"Reefton Health","address":"103 Shiel Street, Reefton","pho":"West Coast PHO","phone":"(03) 769 7440","url":"http://www.westcoastpho.org.nz/General-Practices-Fees/agentType/View/PropertyID/666","prices":[{"age":0,"price":0},{"age":13,"price":11.5},{"age":1000,"price":17.5}],"lat":"-42.118651","lng":"171.8604846","restriction":"","place_id":"ChIJmypHPvZnJW0RiQbQpseAyMM"},{"id":181,"name":"Orakei Health Services","address":"25/215 Kepa Road, Orakei, 1146","pho":"Auckland PHO","phone":"09 5780956","url":"http://www.aucklandpho.co.nz/index.php?mact=CompanyDirectory,cntnt01,details,0&cntnt01companyid=17&cntnt01returnid=116","prices":[{"age":0,"price":0},{"age":13,"price":0},{"age":18,"price":17.5},{"age":25,"price":17.5},{"age":45,"price":17.5},{"age":65,"price":10}],"lat":"-36.860682","lng":"174.829643","restriction":"","place_id":"ChIJvaGRS9BJDW0Rs7GJDNwr5rs"},{"id":182,"name":"Ostend Medical Centre","address":"9 Belgium Street, Ostend, Waiheke Island 1081","pho":"Auckland PHO","phone":"09 3725005","url":"http://www.aucklandpho.co.nz/index.php?mact=CompanyDirectory,cntnt01,details,0&cntnt01companyid=18&cntnt01returnid=116","prices":[{"age":0,"price":0},{"age":13,"price":20},{"age":18,"price":35},{"age":25,"price":35},{"age":45,"price":35},{"age":65,"price":30}],"lat":"-36.796108","lng":"175.044914","restriction":"","place_id":"ChIJu-fWxRLJcm0R0P_3tozGOIA"},{"id":183,"name":"Piritahi Hau Ora Trust","address":"Tahatai Road, Blackpool, Waiheke Island, 1081","pho":"Auckland PHO","phone":"09 3720022","url":"http://www.aucklandpho.co.nz/index.php?mact=CompanyDirectory,cntnt01,details,0&cntnt01companyid=19&cntnt01returnid=116","prices":[{"age":0,"price":0},{"age":13,"price":0},{"age":18,"price":10},{"age":25,"price":10},{"age":45,"price":10},{"age":65,"price":10}],"lat":"-36.791777","lng":"175.038935","restriction":"","place_id":"ChIJhzhJvMHLcm0RUhFoklKxZi4"},{"id":184,"name":"Raphael Medical Therapy Centre","address":"11 Woodford Road, Mount Eden","pho":"Auckland PHO","phone":"09 631 0477","url":"http://www.aucklandpho.co.nz/index.php?mact=CompanyDirectory,cntnt01,details,0&cntnt01companyid=20&cntnt01returnid=116","prices":[{"age":0,"price":0},{"age":13,"price":30},{"age":18,"price":34},{"age":25,"price":41},{"age":45,"price":41},{"age":65,"price":35}],"lat":"-36.878161","lng":"174.754377","restriction":"","place_id":"ChIJ07gC099O30cRVeBBFSRGPcg"},{"id":185,"name":"Richmond Road Medical Centre","address":"452 Richmond Road Medical Centre","pho":"Auckland PHO","phone":"09 3765621","url":"http://www.aucklandpho.co.nz/index.php?mact=CompanyDirectory,cntnt01,details,0&cntnt01companyid=21&cntnt01returnid=116","prices":[{"age":0,"price":0},{"age":13,"price":38},{"age":18,"price":48},{"age":25,"price":48},{"age":45,"price":47},{"age":65,"price":40}],"lat":"29.734654","lng":"-95.384644","restriction":"","place_id":"ChIJyScIVXVHDW0RMnUY8KhJz3o"},{"id":186,"name":"Symonds Street Medical Centre","address":"57 Symonds Street, Auckland, 1010","pho":"Auckland PHO","phone":"09 3099577","url":"http://www.aucklandpho.co.nz/index.php?mact=CompanyDirectory,cntnt01,details,0&cntnt01companyid=22&cntnt01returnid=116","prices":[{"age":0,"price":0},{"age":13,"price":30},{"age":18,"price":35},{"age":25,"price":35},{"age":45,"price":35},{"age":65,"price":30}],"lat":"-36.856559","lng":"174.765098","restriction":"","place_id":"ChIJf8hfZ-ZHDW0RUtkshaqS-FQ"},{"id":187,"name":"Viaduct Medical Centre","address":"Viaduct Point Building, 125 Customs Street West, Viaduct Harbour, Auckland 1010","pho":"Auckland PHO","phone":"09 307-1122","url":"http://www.aucklandpho.co.nz/index.php?mact=CompanyDirectory,cntnt01,details,0&cntnt01companyid=26&cntnt01returnid=116","prices":[{"age":0,"price":0},{"age":13,"price":35},{"age":18,"price":40},{"age":25,"price":40},{"age":45,"price":40},{"age":65,"price":40}],"lat":"-36.84414","lng":"174.760025","restriction":"","place_id":"ChIJK0LL1fZHDW0RAwV-Z_m73p4"},{"id":191,"name":"Hauora o Puketapapa - Roskill Union","address":"1492 Dominion Road Extension,Mt Roskill South, Auckland","pho":"NHC Central Auckland","phone":"(09) 629 2872","url":"http://www.healthpoint.co.nz/doctors/gp/hauora-o-puketapapa-roskill-union-community/","prices":[{"age":0,"price":0},{"age":6,"price":5},{"age":18,"price":12.5},{"age":25,"price":12.5},{"age":45,"price":12.5},{"age":65,"price":10}],"lat":"-36.921015","lng":"174.7361036","restriction":"","place_id":null},{"id":192,"name":"Health Star Medical Centre","address":"132 West Tamaki Road,Glen Innes, Auckland","pho":"NHC Central Auckland","phone":"(09) 528 9800","url":"http://www.healthpoint.co.nz/doctors/gp/fred-thomas-health-family-medical-centre/","prices":[{"age":0,"price":0},{"age":6,"price":0},{"age":18,"price":15},{"age":25,"price":15},{"age":45,"price":15},{"age":65,"price":15}],"lat":"-36.8693482","lng":"174.8599409","restriction":"","place_id":null},{"id":193,"name":"Onehunga Accident & Medical Centre","address":"Cnr Church & Selwyn,Onehunga, Auckland","pho":"NHC Central Auckland","phone":"(09) 634 5184","url":"http://www.radiusmedical.co.nz/Onehunga-A&M","prices":[{"age":0,"price":0},{"age":6,"price":11.5},{"age":18,"price":17.5},{"age":25,"price":17.5},{"age":45,"price":17.5},{"age":65,"price":17.5}],"lat":"-36.9231038","lng":"174.7831249","restriction":"","place_id":null},{"id":194,"name":"Onehunga Medical Practice","address":"147 The Mall,Onehunga, Auckland","pho":"NHC Central Auckland","phone":"(09) 636 5119","url":"http://www.healthpoint.co.nz/doctors/gp/onehunga-medical-practice/","prices":[{"age":0,"price":0},{"age":6,"price":11.5},{"age":18,"price":17.5},{"age":25,"price":17.5},{"age":45,"price":17.5},{"age":65,"price":17.5}],"lat":"-36.92408289999999","lng":"174.7857299","restriction":"","place_id":null},{"id":195,"name":"Otahuhu Health Clinic","address":"6/507 Great South Road,Otahuhu, Auckland","pho":"NHC Central Auckland","phone":"(09) 276 1190","url":"http://www.healthpoint.co.nz/doctors/gp/otahuhu-health-centre/","prices":[{"age":0,"price":0},{"age":6,"price":0},{"age":18,"price":15},{"age":25,"price":15},{"age":45,"price":15},{"age":65,"price":5}],"lat":"-36.9465285","lng":"174.8451427","restriction":"","place_id":null},{"id":196,"name":"QuayMed Accident and Medical","address":"68 Beach Road,Auckland City, Auckland","pho":"NHC Central Auckland","phone":"(09) 919 2555","url":"http://www.quaymed.co.nz/","prices":[{"age":0,"price":0},{"age":6,"price":11.5},{"age":18,"price":17.5},{"age":25,"price":17.5},{"age":45,"price":17.5},{"age":65,"price":17.5}],"lat":"-36.847517","lng":"174.7744872","restriction":"","place_id":null},{"id":197,"name":"St Lukes Medical","address":"99 St Lukes Road,Mt Albert, Auckland","pho":"NHC Central Auckland","phone":"(09) 815 1124","url":"http://www.stlukesmed.co.nz","prices":[{"age":0,"price":0},{"age":6,"price":11.5},{"age":18,"price":17.5},{"age":25,"price":17.5},{"age":45,"price":17.5},{"age":65,"price":17.5}],"lat":"-36.8850218","lng":"174.7357037","restriction":"","place_id":null},{"id":198,"name":"Tamaki Family Health Centre","address":"2-4 Clifton Court,Panmure, Auckland","pho":"NHC Central Auckland","phone":"(09) 527 3344","url":"http://www.healthpoint.co.nz/doctors/gp/tamaki-family-health-centre/","prices":[{"age":0,"price":0},{"age":6,"price":10},{"age":18,"price":17},{"age":25,"price":17},{"age":45,"price":17},{"age":65,"price":17}],"lat":"-36.8988482","lng":"174.8537894","restriction":"","place_id":null},{"id":199,"name":"Three Kings Accident and Medical","address":"536 Mt Albert Road,Three Kings, Auckland","pho":"NHC Central Auckland","phone":"(09) 625 2999","url":"http://www.threekings.co.nz/","prices":[{"age":0,"price":0},{"age":6,"price":10},{"age":18,"price":17},{"age":25,"price":17},{"age":45,"price":17},{"age":65,"price":17}],"lat":"-36.9087734","lng":"174.7553448","restriction":"","place_id":null},{"id":200,"name":"Mahia Road Surgery (Dr Wong)","address":"153 Mahia Road,Manurewa, Auckland","pho":"NHC Counties Manukau","phone":"(09) 266 6070","url":"","prices":[{"age":0,"price":0},{"age":6,"price":11.5},{"age":18,"price":17.5},{"age":25,"price":17.5},{"age":45,"price":17.5},{"age":65,"price":17.5}],"lat":"-37.0374844","lng":"174.8887163","restriction":"","place_id":null},{"id":201,"name":"Otara Union Health Service","address":"3/100 Alexander Crescent,Otara, Auckland","pho":"NHC Counties Manukau","phone":"(09) 274 9135","url":"http://www.healthpoint.co.nz/doctors/gp/otara-union-health/","prices":[{"age":0,"price":0},{"age":6,"price":0},{"age":18,"price":12},{"age":25,"price":12},{"age":45,"price":12},{"age":65,"price":12}],"lat":"-36.9586605","lng":"174.8744241","restriction":"","place_id":null},{"id":202,"name":"Papakura Marae Health Clinic","address":"20 Hunua Road,Papakura, Auckland","pho":"NHC Counties Manukau","phone":"(09) 297 2160","url":"http://www.papakuramarae.co.nz/services/papakura-marae-health-clinic","prices":[{"age":0,"price":0},{"age":6,"price":10},{"age":18,"price":17},{"age":25,"price":17},{"age":45,"price":17},{"age":65,"price":0}],"lat":"-37.0676985","lng":"174.9586026","restriction":"","place_id":null},{"id":203,"name":"Te Manu Aute Whare Oranga","address":"81 Finlayson Ave,Manurewa, Auckland","pho":"NHC Counties Manukau","phone":"(09) 267 8768","url":"http://www.manurewamarae.co.nz/health","prices":[{"age":0,"price":0},{"age":6,"price":0},{"age":18,"price":0},{"age":25,"price":0},{"age":45,"price":0},{"age":65,"price":0}],"lat":"-37.0252237","lng":"174.8572953","restriction":"","place_id":null},{"id":204,"name":"Wiri Family Doctors","address":"792 Great South Road, Wiri","pho":"NHC Counties Manukau","phone":"(09) 263 6622","url":"http://www.healthpoint.co.nz/doctors/gp/wiri-family-doctors/","prices":[{"age":0,"price":0},{"age":6,"price":0},{"age":18,"price":15},{"age":25,"price":15},{"age":45,"price":15},{"age":65,"price":10}],"lat":"-37.000885","lng":"174.8893139","restriction":"","place_id":null},{"id":205,"name":"DW Family Doctors","address":"177 Pakuranga Road,Pakuranga, Auckland","pho":"NHC Counties Manukau","phone":"(09) 576-5177","url":"http://www.dwdoctors.co.nz/","prices":[{"age":0,"price":0},{"age":6,"price":10},{"age":18,"price":17},{"age":25,"price":17},{"age":45,"price":17},{"age":65,"price":10}],"lat":"-36.9110383","lng":"174.8748545","restriction":"","place_id":null},{"id":206,"name":"Kelston Medical Centre","address":"8 Archibald Road,Kelston, Auckland","pho":"NHC Waitemata","phone":"(09) 818 5208","url":"http://www.kelstonmed.co.nz","prices":[{"age":0,"price":0},{"age":6,"price":11.5},{"age":18,"price":17.5},{"age":25,"price":17.5},{"age":45,"price":17.5},{"age":65,"price":17.5}],"lat":"-36.9056287","lng":"174.6635986","restriction":"","place_id":null},{"id":207,"name":"McLaren Park Medical","address":"83 Bruce McLaren Road,Henderson, Auckland","pho":"NHC Waitemata","phone":"(09) 837 3399","url":"http://www.healthpoint.co.nz/doctors/gp/mclaren-park-medical-centre/","prices":[{"age":0,"price":0},{"age":6,"price":11.5},{"age":18,"price":17.5},{"age":25,"price":17.5},{"age":45,"price":17.5},{"age":65,"price":17.5}],"lat":"-36.8966881","lng":"174.6259509","restriction":"","place_id":null},{"id":208,"name":"The Doctors New Lynn","address":"19 Delta Avenue,New Lynn, Auckland","pho":"NHC Waitemata","phone":"(09) 827 7810","url":"http://www.radiusmedical.co.nz/The-Doctors-New-Lynn/","prices":[{"age":0,"price":0},{"age":6,"price":11.5},{"age":18,"price":17.5},{"age":25,"price":17.5},{"age":45,"price":17.5},{"age":65,"price":17.5}],"lat":"-36.9048545","lng":"174.6844513","restriction":"","place_id":null},{"id":209,"name":"Westview Medical Centre","address":"5 Glendale Road,Glen Eden, Auckland","pho":"NHC Waitemata","phone":"(09 818 7111","url":"http://www.healthpoint.co.nz/doctors/gp/westview-medical-centre/","prices":[{"age":0,"price":0},{"age":6,"price":11.5},{"age":18,"price":17.5},{"age":25,"price":17.5},{"age":45,"price":17.5},{"age":65,"price":17.5}],"lat":"-36.9103537","lng":"174.6498171","restriction":"","place_id":null},{"id":210,"name":"De Lautour Medical","address":"1 Turenne Street  ,Inner Kaiti, Gisborne 4010","pho":"NHC Tairawhiti","phone":"06 8674 144","url":"","prices":[{"age":0,"price":0},{"age":6,"price":11.5},{"age":18,"price":17.5},{"age":25,"price":17.5},{"age":45,"price":17.5},{"age":65,"price":17.5}],"lat":"-38.6683365","lng":"178.0475428","restriction":"","place_id":null},{"id":211,"name":"Desmond Road Health","address":"3 Desmond Road,Te Hapara, Gisborne 4010","pho":"NHC Tairawhiti","phone":"(06) 868 8887","url":"http://www.desmondroadhealth.co.nz/","prices":[{"age":0,"price":0},{"age":6,"price":11.5},{"age":18,"price":17.5},{"age":25,"price":17.5},{"age":45,"price":17.5},{"age":65,"price":17.5}],"lat":"-38.6557623","lng":"178.0076646","restriction":"","place_id":null},{"id":212,"name":"Dr Spry","address":"226 Grey Street,Hamilton East, Hamilton","pho":"NHC Waikato","phone":"(07) 856 8042","url":"","prices":[{"age":0,"price":0},{"age":6,"price":0},{"age":18,"price":15},{"age":25,"price":15},{"age":45,"price":15},{"age":65,"price":15}],"lat":"-37.7963582","lng":"175.2947963","restriction":"","place_id":null},{"id":213,"name":"Ngaruawahia Medical Centre","address":"11 Galileo Street, Ngaruawahia","pho":"NHC Waikato","phone":"(07) 824 8893","url":"http://www.healthpoint.co.nz/doctors/gp/raukura-hauora-o-tainui-clendon-medical-clinic/","prices":[{"age":0,"price":0},{"age":6,"price":11.5},{"age":18,"price":17},{"age":25,"price":17},{"age":45,"price":17},{"age":65,"price":17}],"lat":"-37.6674324","lng":"175.1501647","restriction":"","place_id":null},{"id":214,"name":"Te Kuiti Family Health","address":"10-14 Ward Street, Te Kuiti","pho":"NHC Waikato","phone":"(07) 878 3680","url":"","prices":[{"age":0,"price":0},{"age":6,"price":0},{"age":18,"price":0},{"age":25,"price":0},{"age":45,"price":0},{"age":65,"price":0}],"lat":"-38.3343086","lng":"175.1604814","restriction":"","place_id":null},{"id":215,"name":"The Family Clinic Taumarunui Kokiri","address":"17 Morero Terace, Taumarunui","pho":"NHC Waikato","phone":"(07) 895 9283","url":"","prices":[{"age":0,"price":0},{"age":6,"price":5},{"age":18,"price":15},{"age":25,"price":15},{"age":45,"price":15},{"age":65,"price":15}],"lat":"-38.8843666","lng":"175.2652967","restriction":"","place_id":null},{"id":220,"name":"Wood Street Surgery","address":"Wood Street, Temuka","pho":"SCDHB","phone":"03 615 7677","url":"http://www.scdhb.health.nz/a-healthy-community/primary-care/finding-a-gp/temuka.html","prices":[{"age":0,"price":0},{"age":13,"price":30},{"age":18,"price":39},{"age":25,"price":39},{"age":45,"price":40},{"age":65,"price":40}],"lat":"-44.2422656","lng":"171.2771491","restriction":"","place_id":"ChIJjzkw4i_q2EcRU_RGLv6A864"},{"id":217,"name":"Dr Diana Scott Ltd","address":"84 Talbot Street, Geraldine","pho":"SCDHB","phone":"03 693 9909","url":"http://www.scdhb.health.nz/a-healthy-community/primary-care/finding-a-gp/geraldine.html","prices":[{"age":0,"price":0},{"age":13,"price":40},{"age":18,"price":41},{"age":25,"price":41},{"age":45,"price":41},{"age":65,"price":41}],"lat":"-44.0937371","lng":"171.2450786","restriction":"","place_id":"ChIJ7QuEQdD1LG0RRyRvytSaItM"},{"id":218,"name":"Four Peak Health","address":"16 Cox Street, Geraldine","pho":"SCDHB","phone":"03 693 8880","url":"http://www.scdhb.health.nz/a-healthy-community/primary-care/finding-a-gp/geraldine.html","prices":[{"age":0,"price":0},{"age":13,"price":35},{"age":18,"price":42},{"age":25,"price":42},{"age":45,"price":42},{"age":65,"price":42}],"lat":"-44.0930964","lng":"171.2425642","restriction":"","place_id":"ChIJ7QuEQdD1LG0RRyRvytSaItM"},{"id":219,"name":"Pleasant Point Medical Centre","address":"59-73 Main Road, Pleasant Point","pho":"SCDHB","phone":"03 614 7002","url":"http://www.scdhb.health.nz/a-healthy-community/primary-care/finding-a-gp/pleasant-point.html","prices":[{"age":0,"price":0},{"age":13,"price":30},{"age":18,"price":41},{"age":25,"price":41},{"age":45,"price":41},{"age":65,"price":39}],"lat":"-44.260865","lng":"171.1312369","restriction":"","place_id":"ChIJx9m7Gg2TLG0RyvHTdtGoU2I"},{"id":221,"name":"Temuka Healthcare","address":"104 King Street, Temuka","pho":"SCDHB","phone":"03 615 8284","url":"http://www.scdhb.health.nz/a-healthy-community/primary-care/finding-a-gp/temuka.html","prices":[{"age":0,"price":0},{"age":13,"price":25},{"age":18,"price":33},{"age":25,"price":33},{"age":45,"price":35},{"age":65,"price":35}],"lat":"-44.2442328","lng":"171.2776367","restriction":"","place_id":"ChIJUZctm-D1LG0RQ4qQYumuacE"},{"id":222,"name":"High Country Health","address":"37 Tasman Road, Twizel","pho":"SCDHB","phone":"03 435 0777","url":"http://www.scdhb.health.nz/a-healthy-community/primary-care/finding-a-gp/twizel.html","prices":[{"age":0,"price":0},{"age":13,"price":30},{"age":18,"price":35},{"age":25,"price":35},{"age":45,"price":35},{"age":65,"price":35}],"lat":"-44.2562776","lng":"170.0958205","restriction":"","place_id":"ChIJGZlfHZBeaocRhbLfGpdaA4U"},{"id":1,"name":"The Airport Doctors","address":"3/400 George Bolt Memorial Drive Auckland Airport Manukau","pho":"Alliance Health Plus","phone":"(09) 256 8655","url":"http://www.alliancehealth.org.nz/clinics/14/the-airport-doctors/","prices":[],"lat":"-36.9962043","lng":"174.7881753","restriction":"","place_id":null},{"id":24,"name":"Southpoint Family Doctors","address":"652 Great South Road (Inside Southpoint Mall next to Countdown) Manukau","pho":"Alliance Health Plus","phone":"2104","url":"http://www.alliancehealth.org.nz/clinics/27/southpoint-family-doctors/","prices":[{"age":0,"price":0},{"age":13,"price":12},{"age":18,"price":15}],"lat":"-36.9872347","lng":"174.8836002","restriction":"","place_id":null},{"id":226,"name":"Med Central","address":"52B King Street, Whakatane, NZ","pho":"Eastern Bay PHO","phone":"See website","url":"http://www.ebpha.org.nz/index.php?option=com_content&view=article&id=17&Itemid=156","prices":[{"age":0,"price":0},{"age":13,"price":12},{"age":18,"price":18},{"age":25,"price":18},{"age":45,"price":18},{"age":65,"price":18}],"lat":"-37.9609997","lng":"176.9819936","restriction":"","place_id":"ChIJyx2imPzqOYgRlmdvHu4xXw8"},{"id":223,"name":"Oak House Medical Centre","address":"161 Queen Street, Waimate","pho":"SCDHB","phone":"03 689 7676","url":"http://www.scdhb.health.nz/a-healthy-community/primary-care/finding-a-gp/waimate.html","prices":[{"age":0,"price":0},{"age":13,"price":33},{"age":18,"price":43},{"age":25,"price":43},{"age":45,"price":43},{"age":65,"price":43}],"lat":"-44.7378475","lng":"171.0420528","restriction":"","place_id":"ChIJW8-KThnkKagRP-c51nRgjMU"},{"id":228,"name":"Total Health Doctors","address":"252 The Strand, P O Box 32, WHAKATANE","pho":"Eastern Bay PHO","phone":"See website","url":"http://www.ebpha.org.nz/index.php?option=com_content&view=article&id=20&Itemid=159","prices":[{"age":0,"price":0},{"age":13,"price":12},{"age":18,"price":17.5},{"age":25,"price":17.5},{"age":45,"price":17.5},{"age":65,"price":17.5}],"lat":"-37.9522433","lng":"176.9927185","restriction":"","place_id":null},{"id":229,"name":"Tarawera Medical Centre","address":"104 Onslow St  Kawerau 3127","pho":"Eastern Bay PHO","phone":"See website","url":"http://www.ebpha.org.nz/index.php?option=com_content&view=article&id=22&Itemid=163","prices":[{"age":0,"price":0},{"age":13,"price":11.5},{"age":18,"price":17.5},{"age":25,"price":17.5},{"age":45,"price":17.5},{"age":65,"price":17.5}],"lat":"-38.0903763","lng":"176.7008791","restriction":"","place_id":null},{"id":230,"name":"Kawerau Medical Centre","address":"26 Islington Street, Kawerau  (View Map)  Phone 07 323 6249  Fax 07 323 6349  Dr Emily Hermanson, Dr Eddie Barnett","pho":"Eastern Bay PHO","phone":"See website","url":"http://www.ebpha.org.nz/index.php?option=com_content&view=article&id=13&Itemid=140","prices":[{"age":0,"price":0},{"age":13,"price":0},{"age":18,"price":17.5},{"age":25,"price":17.5},{"age":45,"price":17.5},{"age":65,"price":17.5}],"lat":"-38.0861347","lng":"176.7031613","restriction":"","place_id":null},{"id":232,"name":"Ohope Beach Medical Centre","address":"262 Pohutukawa Avenue, OHOPE, new zealand","pho":"Eastern Bay PHO","phone":"See website","url":"http://www.ebpha.org.nz/index.php?option=com_content&view=article&id=19&Itemid=158","prices":[{"age":0,"price":0},{"age":13,"price":20},{"age":18,"price":32},{"age":25,"price":32},{"age":45,"price":32},{"age":65,"price":32}],"lat":"-37.972039","lng":"177.058335","restriction":"","place_id":null},{"id":233,"name":"Church Street Surgery","address":"94 Church Street, OPOTIKI, new zealand","pho":"Eastern Bay PHO","phone":"See website","url":"http://www.ebpha.org.nz/index.php?option=com_content&view=article&id=11&Itemid=138","prices":[{"age":0,"price":0},{"age":13,"price":11.5},{"age":18,"price":17.5},{"age":25,"price":17.5},{"age":45,"price":17.5},{"age":65,"price":17.5}],"lat":"-38.006925","lng":"177.284685","restriction":"","place_id":null},{"id":234,"name":"Toi Ora","address":"32A King Street, Opotiki","pho":"Eastern Bay PHO","phone":"See website","url":"http://www.ebpha.org.nz/index.php?option=com_content&view=article&id=23&Itemid=161","prices":[{"age":0,"price":0},{"age":13,"price":11.5},{"age":18,"price":17},{"age":25,"price":17},{"age":45,"price":17},{"age":65,"price":17}],"lat":"-38.0066033","lng":"177.2854971","restriction":"","place_id":null},{"id":235,"name":"Whakatohea Health Centre","address":"117 Church Street, Opotiki","pho":"Eastern Bay PHO","phone":"See website","url":"http://www.ebpha.org.nz/index.php?option=com_content&view=article&id=24&Itemid=160","prices":[{"age":0,"price":0},{"age":13,"price":10},{"age":18,"price":14},{"age":25,"price":14},{"age":45,"price":14},{"age":65,"price":14}],"lat":"-38.0045744","lng":"177.2843756","restriction":"","place_id":null},{"id":237,"name":"Buller Pharmacy","address":"168 Palmerston Street, Westport","pho":"West Coast PHO","phone":"(03) 789 7629","url":"http://www.westcoastpho.org.nz/General-Practices-Fees/agentType/View/PropertyID/897","prices":[],"lat":"-41.7546091","lng":"171.5984701","restriction":"","place_id":null},{"id":231,"name":"Riverslea Medical Centre","address":"riverslea mall, college road, edgecumbe, new zealand","pho":"Eastern Bay PHO","phone":"See website","url":"http://www.ebpha.org.nz/index.php?option=com_content&view=article&id=21&Itemid=162","prices":[{"age":0,"price":0},{"age":13,"price":11.5},{"age":18,"price":17},{"age":25,"price":17},{"age":45,"price":17},{"age":65,"price":17}],"lat":"-37.974769","lng":"176.827033","restriction":"","place_id":null},{"id":227,"name":"Phoenix Health Centre","address":"Phoenix House, Pyne Street, WHAKATANE","pho":"Eastern Bay PHO","phone":"See website","url":"http://www.ebpha.org.nz/index.php?option=com_content&view=article&id=18&Itemid=157","prices":[{"age":0,"price":0},{"age":13,"price":20},{"age":18,"price":33.5},{"age":25,"price":33.5},{"age":45,"price":33.5},{"age":65,"price":27.5}],"lat":"-37.954401","lng":"176.989145","restriction":"","place_id":null},{"id":224,"name":"Waimate Medical Centre","address":"1 Glasgow Street, Waimate","pho":"SCDHB","phone":"03 689 8016","url":"http://www.scdhb.health.nz/a-healthy-community/primary-care/finding-a-gp/waimate.html","prices":[{"age":0,"price":0},{"age":13,"price":30},{"age":18,"price":42.5},{"age":25,"price":42.5},{"age":45,"price":42.5},{"age":65,"price":42.5}],"lat":"-44.7341499","lng":"171.0456729","restriction":"","place_id":"ChIJcVzO6BzkKagRQsAHjT7om_Q"},{"id":240,"name":"Kurow Medical Centre","address":"8 Wynyard Street, KUROW 9435","pho":"Southern PHO","phone":"03 436 0760","url":"http://www.southernpho.health.nz/info.php?pg=det&pid=83","prices":[{"age":0,"price":0},{"age":6,"price":0},{"age":13,"price":26.5},{"age":18,"price":34.5},{"age":25,"price":34.5},{"age":45,"price":34.5},{"age":65,"price":34.5}],"lat":"-44.733315","lng":"170.4691382","restriction":"","place_id":"ChIJ90nl6JcNKqgRSy9P-HqBtfw"},{"id":242,"name":"North End Health Centre","address":"4 Frome Street, Oamaru 9400","pho":"Southern PHO","phone":"03 437 0347","url":"http://www.southernpho.health.nz/info.php?pg=det&pid=88","prices":[{"age":0,"price":0},{"age":6,"price":0},{"age":13,"price":22},{"age":18,"price":43},{"age":25,"price":43},{"age":45,"price":43},{"age":65,"price":43}],"lat":"-45.0798393","lng":"170.9823283","restriction":"","place_id":"ChIJCTK0bYlw44kRC9x8_7tv_zU"},{"id":243,"name":"Oamaru Doctors","address":"8 Coquet Street, Oamaru 9400","pho":"Southern PHO","phone":"03 434 1000","url":"http://www.southernpho.health.nz/info.php?pg=det&pid=202","prices":[{"age":0,"price":0},{"age":6,"price":0},{"age":13,"price":30},{"age":18,"price":35},{"age":25,"price":41},{"age":45,"price":41},{"age":65,"price":41}],"lat":"-45.0977377","lng":"170.9720681","restriction":"","place_id":"ChIJX7SlMdGZKagRsmLV6-OynIo"},{"id":244,"name":"South Hill Family Practice","address":"11 Arun Street, Oamaru 9400","pho":"Southern PHO","phone":"03 434 8499","url":"http://www.southernpho.health.nz/info.php?pg=det&pid=93","prices":[{"age":0,"price":0},{"age":6,"price":0},{"age":13,"price":37},{"age":18,"price":41},{"age":25,"price":41},{"age":45,"price":41},{"age":65,"price":41}],"lat":"-45.1061885","lng":"170.965054","restriction":"","place_id":"ChIJFauEv0EIsokR-IIKof55ftM"},{"id":245,"name":"Whitestone Family Practice","address":"32 Ribble St Street Oamaru 9400","pho":"Southern PHO","phone":"03 434 7697","url":"http://www.southernpho.health.nz/info.php?pg=det&pid=119","prices":[{"age":0,"price":0},{"age":6,"price":0},{"age":13,"price":35},{"age":18,"price":41},{"age":25,"price":41},{"age":45,"price":41},{"age":65,"price":41}],"lat":"-45.096615","lng":"170.9683456","restriction":"","place_id":"ChIJv8qR-dWZKagRPccYdmbAt84"},{"id":246,"name":"Albany Street Medical Centre","address":"29 Albany Street, North Dunedin, DUNEDIN 9016","pho":"Southern PHO","phone":"03 477 8812","url":"http://www.southernpho.health.nz/info.php?pg=det&pid=58","prices":[{"age":0,"price":0},{"age":6,"price":0},{"age":13,"price":30.5},{"age":18,"price":42.5},{"age":25,"price":42.5},{"age":45,"price":42.5},{"age":65,"price":42.5}],"lat":"-45.8660991","lng":"170.50886919999994","restriction":"","place_id":"ChIJDxOIw3GsLqgRj9XACOjJDeU"},{"id":247,"name":"Amity Health Centre","address":"343 Highgate, Roslyn, DUNEDIN 9010","pho":"Southern PHO","phone":"03 464 0041","url":"http://www.southernpho.health.nz/info.php?pg=det&pid=38","prices":[{"age":0,"price":0},{"age":6,"price":0},{"age":13,"price":20},{"age":18,"price":42},{"age":25,"price":42},{"age":45,"price":42},{"age":65,"price":42}],"lat":"-45.8659244","lng":"170.4915901","restriction":"","place_id":"ChIJ0cmH4IurLqgRWrL1cheAxpA"},{"id":248,"name":"Aurora Health Centre","address":"70 Macandrew Road, South Dunedin, DUNEDIN 9012","pho":"Southern PHO","phone":"03 455 0006","url":"http://www.southernpho.health.nz/info.php?pg=det&pid=39","prices":[{"age":0,"price":0},{"age":6,"price":0},{"age":13,"price":27},{"age":18,"price":36},{"age":25,"price":36},{"age":45,"price":36},{"age":65,"price":36}],"lat":"-45.8965682","lng":"170.4999257","restriction":"","place_id":"ChIJOx9qrqWuLqgRcUJdma7pajk"},{"id":930,"name":"Hillpark Family Medical Centre","address":"32 Dennis Avenue, Manurewa, Auckland","pho":"Procare Networks","phone":"(09) 267 8066","url":"http://procare.co.nz/","prices":[{"age":0,"price":0},{"age":6,"price":0},{"age":13,"price":15},{"age":18,"price":25},{"age":25,"price":25},{"age":45,"price":25},{"age":65,"price":20}],"lat":"-37.0138948","lng":"174.9007502","restriction":"","place_id":null},{"id":250,"name":"Caversham Medical Centre","address":"285 South Road, Caversham, DUNEDIN 9012","pho":"Southern PHO","phone":"03 487 7169","url":"http://www.southernpho.health.nz/info.php?pg=det&pid=59","prices":[{"age":0,"price":0},{"age":6,"price":0},{"age":13,"price":33},{"age":18,"price":36},{"age":25,"price":39},{"age":45,"price":39},{"age":65,"price":39}],"lat":"-45.8963991","lng":"170.4808935","restriction":"","place_id":"ChIJo54SMVKpLqgR7r-8QXf4nlE"},{"id":251,"name":"Community Support Medical Practice","address":"483 George Street, Dunedin","pho":"Southern PHO","phone":"03 477 7412","url":"http://www.southernpho.health.nz/info.php?pg=det&pid=41","prices":[{"age":0,"price":0},{"age":6,"price":0},{"age":13,"price":10},{"age":18,"price":10},{"age":25,"price":10},{"age":45,"price":10},{"age":65,"price":10}],"lat":"-45.8663909","lng":"170.5076426","restriction":"","place_id":"ChIJuaRkHW6sLqgRfXVZYpzRsPU"},{"id":1044,"name":"Botany Town Centre Medical Practice","address":"Botany Town Centre, 564 Chapel Road, Botany Downs","pho":"Eastern Bay PHO","phone":"+64 09 538 0599","url":"http://www.easthealth.co.nz/companies/22/35/Botany-Town-Centre-Medical-Practice/","prices":[{"age":0,"price":0},{"age":13,"price":36},{"age":18,"price":43},{"age":25,"price":44},{"age":45,"price":44},{"age":65,"price":42}],"lat":"-36.9355725","lng":"174.914684","restriction":"","place_id":null},{"id":238,"name":"Picton Medical Centre","address":"Physical Address: 71 High Street, PICTON 7220","pho":"Malborough PHO","phone":"(03) 573 6092","url":"http://www.marlboroughpho.org.nz/gp/picton-medical-centre/","prices":[{"age":0,"price":0},{"age":13,"price":31},{"age":18,"price":40},{"age":25,"price":40},{"age":45,"price":40},{"age":65,"price":40}],"lat":"-41.2912447","lng":"174.0065212","restriction":"Yes, if residing in Picton","place_id":null},{"id":239,"name":"Springlands Health Havelock","address":"Physical Address: 22 Lawrence Street, HAVELOCK","pho":"Malborough PHO","phone":"(03) 574 2233","url":"http://www.marlboroughpho.org.nz/gp/springlands-health-ltd-havelock/","prices":[{"age":0,"price":0},{"age":13,"price":28},{"age":18,"price":44},{"age":25,"price":45},{"age":45,"price":45},{"age":65,"price":45}],"lat":"-41.280288","lng":"173.7659657","restriction":"Yes, if residing in Picton","place_id":null},{"id":257,"name":"Gordon Road Medical Centre","address":"96 Gordon Road, MOSGIEL 9024","pho":"Southern PHO","phone":"03 489 8881","url":"http://www.southernpho.health.nz/info.php?pg=det&pid=54","prices":[{"age":0,"price":0},{"age":6,"price":0},{"age":13,"price":28},{"age":18,"price":28},{"age":25,"price":32},{"age":45,"price":32},{"age":65,"price":32}],"lat":"-45.8769781","lng":"170.3490135","restriction":"","place_id":"ChIJV_LO738BLKgReZAwKJqJQv0"},